name,longitude,latitude,distance,gain,elevation,reward_scale,address,altitude
acidic-cyan-python,-78.79996001,43.91981863,825.5061421,40,0,1,112JNUn5JsfnuAvdXD1bedVviZZ1oPrvyxDDLcoRKJELXouhWF5d,140
docile-sky-millipede,-78.82083101,43.92207007,871.337539,58,3,0.5,11xowkkf7wPTjqAEgX7shJqS7iJMSrwpaCz9mjBccmnpSLoBXgR,147
cheerful-peach-pheasant,-78.79908318,43.92088999,880.7322333,80,8,1,118svoyi7Es5QFBjNcNT8bhQ7AJvgnKoeZRX5qDQorPhXqZNX9C,145
shaggy-cinnamon-falcon,-78.82109941,43.92165823,889.5016013,12,0,0.5,112gdYHwTi8n6wAhZeUz383h768nqViepPWBBmuG8z4wXfnYxSc6,147
tall-tartan-kestrel,-78.82014533,43.92667255,1008.546619,40,2,1,112sUtNsafzbAavGYTk1EYmuPArJe1WebzVHBkJViej1gyvPz6q6,147
radiant-infrared-ostrich,-78.8223815,43.91791571,1059.962864,80,7,0.533340454,112ZQuhs4wrFuk5tE6brjcKV4XtGmYaRm37VnbDQScqiaxttvVnD,140
original-burgundy-tardigrade,-78.82309291,43.91955517,1066.186095,40,6,0.666671753,112C5jxWh9rvdMiBx2CY26CjMcEnc6vWT8EzurJatUkw4n3WrbuA,121
strong-corduroy-haddock,-78.82239279,43.9163963,1131.522696,58,3,0.5,112RYtuKn3cx8uZJJv92Svy4eQBWJ8VP1ZzHhUBh1ecvRoqeQgHk,140
nutty-mint-oyster,-78.79693949,43.91749056,1133.274131,40,6,1,112ufFvggSLdrJEBD8GUuJ6Q3ETDbWWLAdWPAFoMviSq6SXFnA3V,140
damp-glossy-bee,-78.82441845,43.91642847,1275.096999,40,2,0.666671753,112YsnoXJH2TthySAciMf5CE2gExXxUHhR3gzycUXSrRXvcj4Mo9,121
soft-lava-dog,-78.82627347,43.92327814,1322.691553,58,8,1,112aopwQ836vwd89kX8ietc6y8CrkQ6FgPQe3eudHm4yBvCWCdUz,142
innocent-sand-crow,-78.80831541,43.90918915,1351.342069,80,0,1,112fqBe5PfybE3adEuirpXtYBkuJLnkc1FrXpWHAqMK3tG4eAQQ8,132
mythical-seaweed-orca,-78.82522345,43.91519302,1395.177159,40,3,1,11EiyPi78ZZmL6ywg34H63op6Qe1JoDysdRsgb9JJXyHEzoXSZ6,121
dizzy-green-gazelle,-78.79274014,43.92379096,1416.592258,80,5,1,112TWkcRyCCk7ew1q9gD12ouQkjPVjFEB615AztgTQ3ScS5odXqS,142
magic-raspberry-wren,-78.81021029,43.90737442,1545.958412,80,10,1,11rTL45iQQ7JnZ2Sg2rRsZibGnPkYWnNm33ce2xGjZzrDerQ1d9,132
faithful-pear-barbel,-78.82990942,43.92083913,1596.883842,40,6,1,1124Tm8LP4YSiQso5JQj3ew7NGZyUBWamJ76ihhyJqWyNSQUnhmY,142
delightful-golden-butterfly,-78.83010656,43.92026334,1615.959083,58,4,1,11pVGZmwv2cjhiUcP93iEjD9NxFGcLznA18es9SgBMaFXeALrZv,121
magnificent-admiral-troll,-78.81342372,43.90653944,1661.111696,40,3,1,112PJjK7gWH4VFSjnntxvzfrnzsnEBj3kkh7zdCdbDUYu5eA2bNn,132
crazy-mango-orangutan,-78.82893418,43.92889262,1737.063512,23,0,1,11ozYTNeCHmF4CCzuzqw1n5sQY2nQPDVk3F2qb4j2xhTxYhtU7F,142
short-malachite-sheep,-78.81825168,43.90582056,1840.896332,12,0,1,11RG7sH9dEMkTmFcg3RwDB3NBdrng59AEWf4rDASn9wBCV51s7o,123
tangy-mahogany-turtle,-78.82523143,43.93375525,1846.108735,80,12,1,112jRydb91JKgr443mKcXG3xHh5i71oDp8CW9SXZS7zcm9D5MDRa,163
warm-alabaster-bison,-78.83040257,43.91270634,1893.412739,80,12,0.854705811,112QZwK3kTHEpuMQQ5yhEMc6bKFTGVNzxEB7Tr3CSahbDVtgBa7p,121
magnificent-magenta-mink,-78.83316732,43.92731314,1974.621164,58,9,1,11U9SVgLqL6YTgBuU8ZBiomMj4xhE1PUJF8LmmxHJsxMg4GDyoV,137
zealous-mocha-carp,-78.79048562,43.91033127,1986.870496,80,8,1,11qT8xCJn539GTdH9b1tSQZZP8B5M869bQhpnZncaBuLQ3qVabg,132
droll-butter-liger,-78.79364087,43.90781359,1993.841605,12,0,1,1125mDqhBf2jpSHGYzi99rHNL59VbckS9QFRa6U2sXucgdNJSoHw,132
silly-linen-goblin,-78.81648304,43.93884535,2018.392122,80,5,1,11951VYyfJnzDE4WQEwPdVAZC1Eua2G8gguWQVXLyZKXCXYrMiS,178
faint-midnight-trout,-78.78354587,43.92423919,2152.533946,80,5,1,11jh8q1TQhjc8MNR5JUiqF7UY216KcnsLWnkbBivRaaQmDMVVsx,148
square-tan-zebra,-78.78324122,43.91734141,2196.206468,80,7,1,112MxN5JcWtmVdq4WY9ZioCYyfhnFfiRhzwarhyX9AYamgsxSzRJ,137
careful-sepia-moose,-78.80850045,43.90085344,2273.789985,58,10,0.5,11RwWaJYu2mgvuZHJiaRCmnr84rRiBFVYeTTpjev5WutDr29BtK,119
gorgeous-cyan-snail,-78.83834157,43.92223861,2275.741425,23,5,0.854705811,1123FkP7LdVF2L18YHD5PH6UhRPkjN3DFs2AFjZVcMrrLvNig5tt,137
sleepy-turquoise-rat,-78.80891096,43.90076957,2281.550853,58,10,0.5,112ThJ1R2X3vMvAL7Jy2qonm41TsH6zdz1eWd2mnd9FtVsCBBMsF,119
striped-carbon-porpoise,-78.82038204,43.90145913,2354.68304,80,8,1,11KVngETbEqM42B2mrjvuAs67mwVvynJzLMKUG4VUXeHecAAmNZ,98
droll-pickle-otter,-78.78987127,43.90581718,2361.774628,23,2,1,112q8KPD6isdMQtzkNJP3rJ1Z7WhU5k4Ah1iBEGZPjt6UTJrCtSu,132
curved-carmine-tortoise,-78.83862548,43.91620082,2364.739124,100,6,0.854705811,11Zj63UA2YRkCfxWNxcSYqsqVXzXWBobjHvEjidL77eEZsHJNPz,111
merry-bronze-cheetah,-78.82617766,43.90348657,2364.979927,80,12,1,11tzzVzmRZXpwqjBQvvj6MdCtDjB4JL1AjUsyiKSWNAgxJR5NEW,103
interesting-cider-chameleon,-78.81092002,43.89973457,2395.813712,58,5,1,11FFgJBa7vepaZnNmDapzqdgQq4GweVQkvf7nbsMisB7wWFntGM,119
short-tortilla-ostrich,-78.82869792,43.93813459,2397.864076,58,4,1,112cZC1urP6uFCoxTooA3ZqSTZUMvn1Khjfu2QVBvSP98DumuP3p,163
breezy-oily-piranha,-78.78046506,43.91764004,2409.286105,28,5,1,11TXbKHyvDQGMRTy4h2p2TQEJENYaNzasHSKSpXzq3eAqugmafu,137
spare-cinnabar-dog,-78.78626216,43.90780277,2427.173349,26,3,1,112s4CHrpws6S51RkXXxou4P2pRhFVSjzpWuXz2QavnphMxM2Xr,136
prehistoric-ebony-turtle,-78.83478311,43.93412344,2446.107915,100,7,0.800003052,112u4RqgrmExov5tNHmfoFQSpibPwFiDhLZGZnjyXqztZQgHdFJ,169
warm-lead-tuna,-78.78006181,43.92548524,2451.952482,40,5,1,11v4rjM1hgqxio81HBsVd6MMnSaroCeWacrnx3iGW9S6oFE4924,148
tiny-red-coyote,-78.793054,43.90284789,2461.375442,100,5,0.5,112AQc2GCHaJxnGxHQfFJzR4eTBaGwLCs8juQqPMXMiTEojX6jDk,132
scrawny-red-wasp,-78.84065234,43.92292626,2465.586143,12,4,0.862075806,11FduVZc8vJbtSSytyi5mSmhymS3k28JrnrL832GaFjj87NibfQ,137
early-latte-wallaby,-78.79315277,43.90256007,2483.71891,40,10,0.5,11Yt9mehivYXsVEzf4FGUyUDbSGVqZqwT94KhsjgWhTW8eV8DTY,132
eager-rosewood-cod,-78.83693546,43.93341555,2546.01276,60,8,0.800003052,112A1L5BShy3wyi9NDb7Vg3P4oyduAWwSjn6LdngbuiGYJC87ApR,169
bouncy-iris-seagull,-78.7829214,43.9093766,2548.409828,40,15,1,112933CgJFHQkCMyDfeYvLjZn8bjNE4N9UKNwSBYKR283Pm8teDE,136
howling-lime-pangolin,-78.83605925,43.93448734,2553.076659,40,7,0.800003052,112ZqiU9FfBJhSv6qZUsjp9FFTEAhE9EJWXWMR92GwvtS2mdafAt,169
deep-opal-meerkat,-78.83491465,43.93597106,2579.367627,40,10,0.800003052,11XKPAeR4sJbYfxzNvaZfsVy1NrcWFFivd4r1jkzReZ9Pq7C1sv,169
odd-gingerbread-cod,-78.78146387,43.91065537,2581.086315,40,1,0.5,11cUXAJi4Kc6MmqMJqRUmftGnzm3HGdRReSZbSuG3jg1nUv3RF5,136
ambitious-chartreuse-huskie,-78.83705055,43.93419537,2600.608769,40,7,0.666671753,11LeqfmaeQ3tmtUsiumZuxH5BLHgPMFnmhxMEyAL6JXoFkEWsVr,169
curly-aqua-dragonfly,-78.84243132,43.92033103,2603.952251,40,5,0.854705811,119kR7zxabT7GCuZSySSkDqVYhfgajRwDGYyTuTnuT83WNyG5DX,130
fit-burgundy-reindeer,-78.8285532,43.90175164,2631.372109,28,0,1,11cgf27GE9v6QetbJ5yTEmh6Kv16eLqHLppZVgMt8k41oXBd8xH,94
urban-concrete-mallard,-78.84285861,43.92131465,2636.079507,80,10,0.854705811,11217mWeq4ix6sWNKCc3ciZkR7tkkNirNdbmNbXnxVutMhWvUBp4,130
melodic-arctic-fish,-78.78047271,43.91094678,2637.849391,80,10,0.5,11LBFYLP86zvqNSPqc8xCwky6MnyHwz95tVmZsv3ewCqMWoUp5g,136
rich-glass-crocodile,-78.79302301,43.90071303,2663.360061,40,10,1,1129wCSX2nfeMnL4Cpc2Z9fmm5oi91KDA5SX55vvk6kUdq8cpXoP,128
ancient-eggshell-sardine,-78.79957589,43.89830454,2688.325027,40,2,1,11y5XHN4efjwxfN9iBaRKKyebm8irkiduWtAafE1jeGEDfEiw35,125
fresh-gunmetal-cobra,-78.84264646,43.92751671,2708.817962,58,20,0.5,11252A6ubxG3A9Gvi9ZnT159886AowcNYLvd9fBV5avzypHU3fG7,130
warm-honey-orangutan,-78.83274025,43.93971842,2741.847115,58,7,0.800003052,11SmdETyBBvoF13DksKaQcDjntyeJ2DDrbbnFw3vbAmvTV1cvjQ,180
proud-mercurial-caterpillar,-78.83612265,43.90528987,2747.754658,58,8,1,11DiqfbWUAmhBu6vrbv9gkd64iFaQGHeFXaj7XCmJse6UVJymUr,102
droll-midnight-tuna,-78.83992583,43.93360737,2763.186748,58,7,1,11mpmkQZQMWfJK1wMMrLPRfxKZQbb7q5JkmAm9mS8AXozvka8g4,169
big-rouge-hippo,-78.84402372,43.91679222,2775.072873,58,6,0.854705811,11nCUMpB629Zj6Acm6XdPxb5L4a8eeZmQ31xfHDbARMzaePmKk7,111
orbiting-alabaster-cottonmouth,-78.83468853,43.90353081,2795.321955,58,7,1,112fiC2SVt464R1Mw5uafWRurgzNwxwsv6PMk8LScRXadifN7K73,102
glamorous-felt-robin,-78.78778459,43.9015146,2832.186026,58,7,1,11xwBBmYdVtTzvU5uVkLhNZKGTNEkis3VJxcYW2m4T1v8wmoCvA,128
genuine-eggshell-leopard,-78.84496809,43.92668474,2868.748228,28,0,0.5,113Uh9JABq5b6oxynxsbTL1KjMQGBZMXY3EwzughYgsebrPxcxu,130
sleepy-mulberry-osprey,-78.79299203,43.89857822,2870.735446,70,8,1,11H85x3dmCAZURTcp29xPrGow7GZbc3SfXsehmNgERASgbhNYoN,128
wild-brick-squid,-78.84417057,43.91301377,2891.656241,60,6,0.854705811,11MTdeje3eJwoAk8dreSe67xzN9XMVwddm2VrsRAwfL6bbfPSTx,111
active-umber-pangolin,-78.84609538,43.9241334,2913.173201,80,10,0.826446533,11HA3GrJESN5gyxo5c3iUyBdhzFM9Cqv7zPpmcZpbngyja8rUFs,130
cheery-snowy-bull,-78.82834135,43.94400976,2921.405289,80,8,1,11Ra3Ryfr4Swoj2vNQmAbgd6ek7MywJDC6ZgyAJajSY4qUDbsD1,176
big-lavender-seahorse,-78.78769823,43.90028324,2943.819718,58,10,1,116hV8pAB2T3CMjHTmX9js5Aagbq2xYDnrrhTFLMGzsZKkhRBgf,128
handsome-tortilla-swallow,-78.78384868,43.90222856,2984.802407,26,8,0.5,1129JcNxewBjQk9ftwRd4XjMJ3Ycejjoh5zoxv1Jx8gVaDjifTwT,130
faithful-turquoise-mouse,-78.78384868,43.90222856,2984.802407,40,8,0.5,11tL1D87CMeGNw3Y6WZw85QtWhafaeRmfo6Zh1PB7WpgGki2MYR,130
sour-lilac-kangaroo,-78.84206182,43.90764442,2985.811939,58,9,0.862075806,11ybLcvqApJNJUGneM3CZYwKp2TGLiRwP9siV1mLLmh1QcDPvbR,109
boxy-sapphire-mallard,-78.80131292,43.89509496,2993.433393,40,5,1,112bNM2XzNvADSrV6m2ubZWXxDtwJupdCD1dJwGkzovNhgiupP5z,125
dancing-dijon-squirrel,-78.79051341,43.89801363,3024.312167,28,0,1,11XCPG42DaYj1yq2Z26trMtFrdJtUtYC3DYUxG58jFY7yrY44dQ,128
formal-powder-scallop,-78.84784688,43.9219899,3037.681331,80,8,0.854705811,11ubDqGrhSZYYrdeLzbLMZnkH8GcuvQCjCaceNhz2FmxgpNg8bc,130
shallow-cider-moose,-78.78210753,43.90285146,3037.860107,58,11,1,112mGxjYPLiEksQVZpfUu9g2cDZngsgJPRtZHQJc81cPA2tW5zRk,136
abundant-walnut-caribou,-78.84786775,43.91895098,3049.503734,28,0,0.862075806,11Y5xn8iciVmu7yip8sSnJZgXrcXn6w5tj8ForoVXUJi6vMZKhf,111
plain-pickle-raccoon,-78.79921719,43.89489846,3058.180758,58,11,1,112jCADURtaA9D1pUKNMN58bBA5oYkG4iBVPxCFWbmvJkzwfWJ8c,125
interesting-bamboo-pig,-78.82406647,43.89553094,3075.771579,58,6,1,11gYT7mtL7eL2QuHHahSvPugFEDrYF9ZDr4yYsNGaAUzLr3sLvx,94
crazy-bone-mustang,-78.84628387,43.93177125,3135.330154,40,2,1,112uC2DqUbgxG1j5S1u7m9yPpXhaGJZuBzSx4a6E9QBcUUT8EK28,160
atomic-indigo-hyena,-78.8058123,43.8931054,3149.655413,80,25,1,11AbraGykHNq5M7XqNHRmrgMvX2MVidcyNZqsfuZkgRrcCwQu7u,96
steep-linen-tiger,-78.8216426,43.89406361,3165.301988,80,8,1,112dGLPxLYd6eSozZgt9wX6WxR3KhWofEN3F5Ah1RH2JAsJJ5ZLR,98
hot-aquamarine-crane,-78.81466063,43.89290337,3175.584857,40,3,0.5,11c3s81UihRULbQcwrS2UDpH9ayyoVxGygdGYyi7Yq5qmAS8UZk,84
joyful-amethyst-duck,-78.84949582,43.92424094,3185.993098,12,0,0.826446533,112hSBk3io3q1vE8LsbSo3GwbGySxtdAsDcKMPBDGNrmvEp58z8r,130
cheery-lead-mallard,-78.81362656,43.8925794,3202.789917,80,8,0.5,11s1J1HqrNGZzQ6qxvaLHjj3bSVkrLo3tQUwSfpG8XzfjjKQZ8U,96
skinny-oily-ram,-78.78479373,43.8987349,3223.421802,80,5,1,112aMmqruLJw4DZzkzb7JJ4NicNiwKVaQoj3XDs4rEnZ49pWgvf5,130
zealous-sangria-mantaray,-78.85030026,43.92300523,3239.313781,40,0,0.427352905,11W3rWSwBaBbd4amujpFWQ5xLD9Py7GQDL1AdfvehmtQbmGPaH8,127
curved-marmalade-carp,-78.850514,43.92349703,3260.095546,40,16,0.431030273,112FB3xjEooojWLTi4PP4QNAvYRx88XqpHW3uYg6GTUe2xFbZeAk,127
genuine-peanut-hyena,-78.78012304,43.90084762,3306.222866,58,10,1,11fS9FpM8oaAm8Xa9eogqNEmwoXvgATYFdVMm54ntpFrqZZMadz,130
sleepy-pickle-donkey,-78.79484048,43.89356188,3313.628204,40,0,1,112tikAxfR2ntE82phLKaxBTgbEEa2qYxbx6bU9yrpNp79uZ3Gik,128
original-hemp-seagull,-78.79887416,43.89255982,3315.489415,80,20,1,112WCkKgHFspaZ2iSQq2S4nKuvDTFbK8svyHfeLtifLmgH28cPDo,116
acidic-clay-cormorant,-78.84643492,43.90639264,3359.578445,80,31,0.854705811,11w6R2Qytv6HWyCYBsCXd4nHaTNmXjEacKWuZrvAGWCMAjXzUqd,109
ancient-rainbow-turkey,-78.81607309,43.89100883,3399.058844,12,0,1,11aNGQ3w33iRj6MRKzvL6wUUzJVHz39437Pbbpw1ag7DJqFM4dp,84
melodic-fiery-narwhal,-78.8485576,43.93443037,3420.796629,40,5,1,112w2odPDewHBDmKAbfADjnRo7QX2eCTyNVV1iT57eHupKUTJS8M,160
dancing-neon-lion,-78.82856485,43.89354049,3423.496083,40,3,1,112D6SUFZfPR9EP6xqvXp7NMm99tnVa9cGxUn8KiEqNd1VaMkTjL,94
original-mossy-perch,-78.79721672,43.89182777,3431.449321,80,7,1,112RGQYi9J9WukqpNgFuYDkdgK8Xkp8Q6vbEevxAsT6sZNNBHtSc,116
scrawny-aqua-mouse,-78.84268441,43.90135965,3432.245579,58,8,1,11ZdtJANCzka27UW1NkVwBYAr8eY7mWrLmBTMnt9fpitLdLhHfS,105
fast-banana-hare,-78.83294249,43.89487578,3463.80943,12,4,1,11S2Np1FXXEoeZ82zxkMcXL2sQBoQ1xQ9SvS7t4MNh1tfSvwo9h,98
dazzling-mint-wallaby,-78.85111393,43.93105077,3472.599457,58,4,0.840332031,11WeeVESETMmzHGEwLpJ8iWgy38RU1LfsgdvikiiYqgfAkSPvtr,149
cold-cerulean-bat,-78.83243349,43.94879744,3546.458035,100,6,0.5,112NL4eMUt5ZrXb2PFnFU7rYUT9Jircb1T7ZPMMNp2G2nFqNRT54,194
sharp-vinyl-bat,-78.85166901,43.90969434,3583.504564,40,4,0.854705811,11stysCs4nZh9S4P2jhcQb6tQGCLXWq7nF1Y4Tqv45A7tcWtrjz,118
small-goldenrod-sealion,-78.84601194,43.90130338,3644.367377,40,2,0.341873169,1172pLqjNKgchCWX1oAA6ij9uffQEHEcnojTAYdWbBVVTBfbfmH,105
thankful-cloud-copperhead,-78.84579836,43.90081168,3664.454005,58,16,0.341873169,11p5sPJfH5YmydFPqPyvgGtJJNQLNvXu1zAVHYDFfTeQn51koyz,105
eager-aquamarine-hippo,-78.83498659,43.94952538,3722.59011,80,8,0.5,112KSthiEyncS1aEaiyeiScpXn1moAvq22Ezvq28JftAKUejKbG6,194
fast-punch-mule,-78.85197569,43.93560561,3724.728589,40,5,0.854705811,112wV2DqhaYkVwZWwCLgWJqoR3BrJdspGiunY5aFNvFFsdHuagNt,149
rich-lemonade-seahorse,-78.85083496,43.90468895,3760.445375,10,3,0.683761597,11223KMVty8bJimK3HdEDMLYoxP3ed4b9ZXVW7mEkaCST8w9JnJv,118
deep-amethyst-dog,-78.80069405,43.88799538,3774.460923,80,10,1,11vzvJ1rvkJ2HbCLPqD8D78xRV4FvHRGy8PJJ7RdpCTMz5Y3D5Y,116
genuine-mulberry-stallion,-78.84573766,43.89912864,3779.726542,80,12,1,112nhUVypYLamDfWZPHedRBYhEb7JzLMXsVJReborynVwCHGf6dz,105
old-latte-sawfish,-78.85460311,43.93238986,3785.601035,23,0,1,112JEmsam8xY63E5fPBgk1PDiVEmWFp5RsyhUzgbacm8yZe3DXYe,149
merry-juniper-ladybug,-78.84157148,43.94666128,3789.502356,80,8,1,112tPvy7VmyQVJ9chhy5ba7Xusiog6TgmRDe9oayCxVVD1FMeJmR,184
flaky-oily-cheetah,-78.79849994,43.88808666,3803.584094,58,10,0.5,112qCX9rj6tuMxt47L3ZNdHYuC8dF3UdE5yLAySRrB18mBzY2Dfe,116
mean-watermelon-yeti,-78.85210794,43.93745324,3826.255654,40,4,1,11UJSpVNefN6WHefztTb7c34gUYNvnJtMQExpR6K4VDW8GF8jVe,149
rare-cedar-scorpion,-78.83943518,43.94843728,3830.470695,80,8,0.555557251,11F2f8keHVQKaNZ9wMuNg4V5wNi37NgSwH2Ghf2E3Nw8vjSW8nE,194
deep-sable-griffin,-78.79876835,43.88767502,3842.823456,12,0,0.5,112RqLe3oePKRFLbsUQtfV1HufJb9xBKyBB9DZH3xtaq7KJsVriQ,116
shambolic-sepia-tortoise,-78.84226736,43.94723317,3874.106185,40,6,0.555557251,112rcDRLeDp6njrhgXo6AXy1G67wsDX39qktDUmzk2rzGbmnby9s,184
amateur-tangelo-fish,-78.80222132,43.88688059,3874.168841,40,6,1,112jLYnMBz53KvEvVFtrqQFuhAsUFtBcK84ThNUGYt69zK1DjXMx,116
faint-basil-coyote,-78.77805027,43.89502599,3887.93825,80,20,1,11i2nVxYwZTbYfXJYSAdP244HLrF9jywEGRwNhD4dhF4SyqpfhQ,130
tangy-cornflower-hamster,-78.84352037,43.89556697,3924.56446,58,10,1,11kmUN6sTA8ok1Nw877HNrnPfuUjbN552pU1jm7Hv2fNSrLb6cv,105
stable-hotpink-llama,-78.83663044,43.89153389,3936.178217,40,3,1,11KfwBqSNDPMJpT9ubZ4eNJ6NzHzwDjpC7eoFR75tDMGWTfWsK5,98
blunt-berry-mantis,-78.85893017,43.92382737,3936.863359,23,4,0.049575806,112SLF6yskPb6rwQ4R7hW9TXm3geQonycJGH4qY666RetioAzK2t,132
passive-merlot-finch,-78.85902856,43.92353944,3942.595016,80,9,0.854705811,11kMNuJyXMz3ZVZVvbp9B5yQjpENBdU8sR2Pf2cqRnwKMoM6tRt,132
big-velvet-monkey,-78.84225673,43.94875307,4000.790343,30,5,1,11CGmsf8YgUNTb3u56d6CFEXkA1USGpFemFaiRXFkkbPuBvBSA2,190
silly-coral-cow,-78.78024227,43.89234871,4008.363953,58,12,1,1125swAtxdBJQcQdcMmup2Kbe1Jm3qndfsCVVGXofbiNQ3XmkX16,116
skinny-amber-tardigrade,-78.79627469,43.88604336,4069.046452,23,5,1,11sq8fQtNiKN2qfdUvyiQVmTNdmPXfCcxwbG6CwERoZ5o5eVHdW,116
gigantic-purple-kestrel,-78.85386087,43.90290941,4069.623219,80,15,0.683761597,112Y6t8q9vtWs659g6r7ru3jqSGVm271jWVVxLphEFCH15uC7Pvy,118
faint-blood-bat,-78.85499382,43.90294518,4146.636796,12,0,,112iPx12mnSVtLxnQ3e98T1v8S2ccGhPbr9x92ScEEfDTbkoKoh,118
abundant-scarlet-jellyfish,-78.85059145,43.89795673,4163.289276,80,9,0.909088135,114qyEXRiRCMQcKkyTbSJyipCcUrYVTtVizBpwickBsptLFeZXi,110
salty-plastic-llama,-78.84488125,43.94964477,4213.732155,40,7,0.555557251,112XSAaqoEEEhgyNj7k97segdN64mGqAcXuNWC6vtEaV39CJqhBS,190
clever-scarlet-parrot,-78.77931999,43.89021765,4243.358626,80,20,1,11ZgtKAuAQTEEn1LjxNEQidT9rnVCfQ5bsTBudB6n6vgXFr7zjo,116
melodic-cedar-snail,-78.84131407,43.89048638,4245.691611,40,15,1,11Avo8E52gz5nm49M9fvbFKD72n4UgGVXmwJFthiBSuibGdpwBn,102
broad-cobalt-blackbird,-78.85973637,43.90768577,4268.520502,50,8,0.854705811,1126b3gZGBRdbygefxT4EehJk9JjrXMkcuyucofASnLVo61XqF9B,126
skinny-pecan-marmot,-78.84652477,43.94930861,4275.213562,70,5,0.833328247,112my9Pqo3beEh86FjbKwXEduYswacS9nffW3cs2gxs56jz4xmpY,190
shaggy-bronze-mandrill,-78.85084259,43.89647758,4283.011103,58,14,0.925918579,112KE6H6QaZjtRYeayxmjSvTEq2s4iXsqFPnPRVy7E63x6LZJByb,110
silly-silver-lizard,-78.85557727,43.94183191,4310.886429,23,3,0.787094116,112k1ibq43tbXHNDaoxiNbb17CxNgdkJrgG6czLzKv7WsVXHAdsa,175
damaged-eggplant-griffin,-78.86010268,43.90698603,4324.035154,80,15,0.427352905,11cgcvv1sH3Ew4QDvjAduGe6BDKHxdX2gfh5iJTxKxeWPmxUCnX,126
ancient-lead-alligator,-78.84084954,43.95323699,4327.012726,40,4,0.555557251,11zgiXaczXzHV4Q8chcUGyCa55GatsjeuMuPPBG8gTMsqGdCbzg,194
zany-inky-nightingale,-78.8448707,43.9511647,4340.892373,30,0,0.555557251,112iizncfQj17Vr9pmj2ATzxRLfEdGc9nEVpjcBxnAoPifJsPsvr,190
attractive-heather-raccoon,-78.84129745,43.8894191,4341.087789,40,2,1,112hNxgPN53acT9X1mr1XZwbEUNQhnpydSJio6XbwXSuUdHgqAKZ,102
late-licorice-barbel,-78.85992915,43.93692378,4366.995617,80,10,0.854705811,11FvtwnrntGP2d9MyM51sjtMSTzf2qoVYVfjFo12NPLCobypKXf,147
polished-citron-elephant,-78.86471566,43.92067901,4392.007506,40,1,0.854705811,112Fo8d8ZRhhhH5UD5mq9yZ7EZeTAvdKVBkX1WN5iKjaKv9TjJdq,132
generous-brick-troll,-78.85653037,43.90031035,4402.37038,28,0,1,11vhMLXaCjvhRj1ggwMR6jYcbFQeWNQZfBpAVVJRTEZHm6FBPA4,110
dandy-mahogany-halibut,-78.84760439,43.95024842,4410.659355,80,10,0.416671753,11vxDgPzDum6MGh95QxsKpqTn82YeDR8oQqAbZWR5cRHDoMy9vN,190
swift-misty-swift,-78.85527171,43.94421568,4436.633983,40,3,0.833328247,112DRPzPqhpDdphJdHjdiaLPC3ZMzRScnaTwe7xkwBGSKgeHKdLF,175
big-tan-lizard,-78.80361455,43.881333,4469.233735,12,0,1,11nf7JGWHjMEzsgGLBheXEoFAfoVP6h1vcbQHfpsFZkNjnbMNqx,98
short-cyan-parakeet,-78.80361455,43.881333,4469.233735,28,0,1,11qrvkTqGXqc9nnAuuopK7Fdp3vN6Xoze3XVZFdvS7DEhtx9R9G,98
tame-pink-kookaburra,-78.84020281,43.88741254,4476.592688,40,15,1,11cUpovaupUjvnSraHPrJAZLYF6f7ADsSAEvAbWX5YeQ7UZUDu4,98
alert-sandstone-crocodile,-78.83756786,43.95649718,4493.498613,80,8,0.5,11Y3sHtdmxRKuSW5S95N4EEMdfG6XWdMNMBud3bw2bPEFiZrjuB,207
restless-malachite-barbel,-78.84299209,43.95404882,4500.256689,36,0,0.555557251,112WA3Q9EMjqj643AxcHN9f9FQtHHbEGbcJdiZfoTrDcvaxMbCVJ,190
blunt-foggy-swift,-78.85852822,43.90079367,4511.955789,58,8,0.683761597,11DMmJa2CiwJkaZovKGnVaCNV3ZBQMDwFoz4o7FVyEpwwxA2MUf,110
polite-sepia-zebra,-78.84837168,43.95098429,4512.445564,40,0,0.416671753,11gXQTjKbhpqexFQRAHGecGqehW3UX4HZz6AAVawoRPrTQ6dQfY,190
recumbent-carrot-caterpillar,-78.85910459,43.94119926,4518.816294,40,3,0.854705811,11HTFc3ynkEcQUTjwmJn5RGBZjK1N57Ygmsjh1ndA6pw7xsH1v1,157
brave-peanut-kangaroo,-78.83596789,43.95744926,4525.366782,80,8,0.5,11SHkWzbeEfQs9W7teDShkjaeXPn5Tpjj9rrSSucBgjubh2sBFU,207
shallow-cerulean-rattlesnake,-78.85387619,43.94717965,4546.214464,40,7,0.833328247,11932HKRrVJZ1DCBxqaW7cQak3y2N251SL4W6rvy5HZ2dJJwoXg,175
tame-sky-falcon,-78.85489481,43.94643553,4558.711817,80,12,0.75,11dpZBfdMhJ45RPDibNoqsVYNbiV44BjPqhTwzUK8cucNfWWydy,175
suave-foggy-raven,-78.86641447,43.9153326,4576.211306,40,0,0.862075806,112c5Z8WLyWXN55nTjriaPrPueK31HW2ZkuAukpoDQytZxY71xTd,125
wobbly-alabaster-huskie,-78.86040068,43.90201657,4577.272387,58,4,0.431030273,112HWy1ntV3yoyyvCimFaF5c5Fw74tRUt2LvNyMm6ubLEcaBhUvz,109
daring-cerulean-sealion,-78.85860953,43.89943842,4595.374524,58,8,0.854705811,11UdK82VRjjD6hkKAQvJAwmKsbPpjTQ8c8NoxSazJJzG7fCq7gS,110
handsome-fern-griffin,-78.85717474,43.89767975,4606.38002,58,11,0.854705811,1146ke6Baedk4xd7mAvvHHnvxoHDgBaqRk8BzexCRcVskJZ3FzJ,110
lively-leather-bear,-78.85551955,43.94684337,4626.116339,80,10,0.833328247,11SQGMUsqiksrfemeVAXK13DYzRawA2XxmvzBkmQwwqBuiQNps7,175
bouncy-carob-mandrill,-78.86457263,43.93525893,4646.45884,58,20,0.854705811,11ijqbhSXLdBVNywuWniQxvoDLkYvbjxQLGSWiy8yJEy9dAM7Ma,147
vast-sage-alligator,-78.85988489,43.89980193,4661.848075,66,5,0.427352905,11FeD7tukWKRsp6SmNdFkPrstArPyenM2Z5QNM5itvhrYtguy8m,109
refined-coal-loris,-78.8562156,43.94741518,4709.249606,80,10,0.416671753,112f9XarxxbpY48Xzm2EzPwdKpTjmuVquUEbR42Mmz5QErknBZyp,189
dandy-white-rooster,-78.86228319,43.90172028,4726.513008,58,6,0.427352905,112fhvzGQqJkAc67CLPeUZJa2yERQ15yc3ALqimRF561fmfBFNNe,109
flaky-sage-kangaroo,-78.86407464,43.90429843,4733.297287,80,25,0.427352905,115jyzZxMH9WaDFmJiKBymeVDyxysxRuzYyx6ZhK252PGPhhdNh,126
early-raisin-woodpecker,-78.85592021,43.94827918,4750.589919,58,8,0.416671753,1126cQ1GLFah2kKbuKD8X28UKTHMsvZ2Cj9EPoohnggwRXZayPPy,189
upbeat-rosewood-armadillo,-78.8018984,43.87891838,4752.826878,70,10,1,11nXJi5soJgTQgti4aTU9h5zGQaySGzy2hFrbZjTfNior1KGLNA,98
tricky-velvet-chinchilla,-78.83484069,43.88226442,4771.896537,80,31,1,11Sxxnx9ofpk5uD1F3ZHxUEAQmEcpmoPfwQBYRJPrT5fZLnPFwL,98
teeny-mint-boar,-78.83863672,43.9589572,4774.041606,30,4,0.714279175,11MUJYjyrPfeeiWD89vAY6D9rw7MhWEcfb8xrasD4UBvSP2eDtt,207
short-crimson-rattlesnake,-78.8694902,43.92086155,4775.169926,23,0,1,11cAm3DUcAm6hPZ4frtkE5PBmwzeiafNYnDi78QmsSVqJv8SNcB,137
elegant-beige-shell,-78.84522273,43.9560926,4789.233529,80,7,0.833328247,1126y4HxnhfsZuXRDQrDu3WZtZs37fjt7DjVsuxmFXzuLTXkEA1K,190
gorgeous-holographic-dog,-78.86415579,43.90294313,4801.287356,80,20,0.427352905,11Jt5tHW3iUkCxVxhbqtVX6Dd4Ubz7WfrozmTzuoAGbs3UScxAY,126
immense-tawny-yeti,-78.85357644,43.89145632,4818.751712,50,3,0.854705811,11tLVEojcnFvN8zw9rNxefYSMJ8M69ej9Zj6yy4sVugsoHgXDte,106
huge-malachite-copperhead,-78.85979759,43.94587854,4840.550643,80,5,0.833328247,112BGgg1RPpJRaBemVTeaV2p8AjW3PuhrUsR8b5pakteGzMGH3HN,157
spicy-chocolate-otter,-78.85472157,43.95066727,4850.738029,80,8,0.833328247,112v2HtFx5cBW6eM8SAbmz675dW8bdqpZcbEgMPBoD4Nn8WqdSD8,189
young-green-penguin,-78.86657166,43.9059289,4851.16774,80,33,0.427352905,116dfg44vZ7MPHhtUa71Eehj3zpoGXAWndrTYJojAaZ49gWx3Gd,126
expert-umber-tardigrade,-78.86595479,43.93792203,4855.863701,58,5,0.854705811,116KZ6Dg6wCaAgsG4xqX3KEo4iPetZGneTod8Dqk2z79Ucjkxur,147
scruffy-peach-hare,-78.86607273,43.90478163,4860.367053,40,22,0.427352905,11h8ncmJbvLuASv4ay8DkqpGDAJBHhsHhp5gdBGq5unn6kf7Xtd,126
tiny-butter-grasshopper,-78.8431574,43.95803285,4872.472209,80,0,0.789474487,11gnP5EpEcjSXsLnuiP36eKBeZMkKBSi3adRVdhB4jTqRJZkV1u,204
cold-cinnamon-armadillo,-78.86905581,43.93219831,4892.18543,40,6,0.854705811,11Ed9MFQESmaqMG7zY94AwF1sYfYTAnLkze3YyMJ9BcAkgPAnVx,145
agreeable-concrete-frog,-78.8709262,43.92262048,4892.433999,80,15,0.862075806,11YZirH43HQQaTFRuaEUfnfsma1QwXxZ7jZo6ENHCnfCpvyFhcd,137
long-flaxen-fox,-78.74907559,43.92412703,4905.877243,80,15,0.5,11EtpV4FEFwXBtQdra4VKQCmdepQarH3g6oduXvfPjQJCXbgE1p,154
daring-velvet-alligator,-78.85629374,43.95016699,4908.33102,80,8,0.833328247,11sbnTRNWjmmkU2mhSd5NL87cR5u1rfvzYcLd39HLUovG32Xos7,189
smooth-lilac-monkey,-78.87001983,43.93235796,4971.575936,12,50,0.862075806,11oCJTi6Bwi5x2LLe4DdSsodfr5JVmRcyb1LkuAUwV174BoGob,145
interesting-bronze-chipmunk,-78.85640921,43.95094693,4972.338513,12,0,0.5,11mFpjzCPmczRikhZpdovhiU2MCA4eYEfh9HZqF8d1SD4pCd4qR,189
careful-daisy-woodpecker,-78.76766751,43.88858056,4979.071165,80,25,1,112JvErP2KWJDCdUQTuqxshGp4sawMQyLpWGbfRRcsYZTGijYrTG,116
overt-golden-sloth,-78.85579768,43.89091228,4990.486141,40,8,0.854705811,11Zk5w9qmmjAeuThqWf8GivSWVT8YqLgj2ViFH2AipSpd4Ci5Wz,106
curved-magenta-meerkat,-78.86593511,43.94096154,4992.661136,80,8,0.854705811,11JzvVL1q3iTTndeg4NNdUoni16ej3dK4aceKBQnLrhvrgAMFgB,157
generous-cider-giraffe,-78.87153731,43.91374769,5010.175567,80,8,0.862075806,11ptZkeNdyR2ceTLg5uXfG65Z5Lg76Fb7dQk4FNedZJRkD4ComH,131
rapid-caramel-tadpole,-78.85987595,43.94863029,5024.421944,12,0,0.357147217,112SpXxkPAvZX9mrqDN5U7ust7wzEbmNiJMED4cWzGhSk2YhUCBu,170
original-orange-snake,-78.8383028,43.96179338,5040.448046,80,12,1,112uiSvdx4eDBLKC9dPWqG8LmC235edteiEx5sTWw1YPoAgj293k,207
nice-frost-whale,-78.87108218,43.93222965,5050.834083,12,0,1,112EkNoB1n4UG1dNC6WLX5MDLt29m4VzwKsgDTHrgxcvjpAMsYjg,145
damaged-zinc-elk,-78.86299129,43.89666704,5057.544091,40,3,0.854705811,11jpKfTbiAWAai8xdV5cQBKABWmWfyxCrrSnkFXqJ6GcLyPJqFA,109
tiny-viridian-starling,-78.87154685,43.93124174,5061.987639,40,70,0.854705811,1129HN5mzXDRnuoV9yYEr8GP7tehUMuLDGfnTYRZ9Togk95hjeZk,145
unique-mocha-lynx,-78.7470778,43.92364168,5062.946232,80,10,1,1128R99wBsZkeJXVcDXhmsePDaSTAnNxkLkrWSaYDBrQZE6chbM9,154
delightful-aqua-wasp,-78.87314874,43.92207592,5069.467057,12,0,,112ufoUVUWoAcj1ofTrYcfPGjP5oGvckAQwg4mf3VPhWKx6gyy4n,137
acidic-leather-python,-78.84633601,43.95916856,5119.530868,40,10,0.833328247,112jQRVpQrkHtBgBx7DuZmhqP8CZUQz32aRv7ogPjxfeG5Fu8vgo,204
wide-cobalt-mantis,-78.87012303,43.90484439,5160.635125,80,30,0.854705811,1123opUoUhtZyMCM1QRFNJHHE6ZrZN6gc6AnCesXqW9weY8Xbh9M,117
winning-caramel-ram,-78.87356286,43.91377899,5170.079355,80,13,0.854705811,1128aJt34C1SgduEGVxiCUPSL7EXSQ4zKLDyDNDcXSxAab7LhRja,131
great-licorice-gerbil,-78.84751101,43.88315101,5198.024228,58,15,1,11Jh6ykidkBsVFH8LYqTvvTgZtKCiKVr9FgZxNyZeebenHp5Yn3,103
howling-mauve-moose,-78.85766276,43.88954883,5203.349416,40,8,0.854705811,112ETytPyP2migy7R14gT6GhfFg4w7qrnZFcjwL9PfZSWCRHhDvU,106
cool-charcoal-pelican,-78.87331415,43.91115224,5205.725901,38,13,0.854705811,11228KcPDFaDH9EeWjzwaDk7yrxTe2NvUmLEoWYzkFqV2jZfdE8x,117
sweet-snowy-bear,-78.77464118,43.88198507,5211.108355,100,20,1,112jvuF6oGCZaE55xCJi4rAMTXxwosGE6YSHCH89ZBth1L69Rjaj,103
tart-denim-tiger,-78.86588104,43.89714598,5226.762283,80,10,0.854705811,11rQ6rDXspMdeoPAYrnACo4YtqsqzwswRsyfSMKEcSM92GkpxLV,109
witty-glossy-duck,-78.82688713,43.87577326,5235.198759,44,9,1,11m7UJnnzCd6CrzMVyDGGaec9qbEvGqVhMy8Rinq9Vds5TDn194,88
howling-glossy-dove,-78.86607533,43.94539695,5236.779198,80,4,0.854705811,11DCaESj3z1hkzjzQUric3YxnBJfvwJHd7ri6HJejzBeuvwjP53,157
warm-laurel-crocodile,-78.87462477,43.91365067,5256.557453,80,8,0.854705811,11rUu61GUttz7Q6wi6dz3cito4fFTLNAf3kmigvGhpSP13FuNs3,131
skinny-gunmetal-raccoon,-78.87521276,43.91602946,5267.240349,58,10,0.892852783,112LWhtfLc9MTrhMrVDRry7mjzE6nDdVDLzFVMHqSxSQcdQAX7yx,131
gentle-lemon-cougar,-78.87210386,43.90426006,5332.447223,80,10,0.970870972,11AbBTrGqqvVzbGnKUeTADRH9d1PvoBaybaFPNKUnC13izDHnA5,117
sparkly-frost-cow,-78.78393567,43.87714526,5334.115196,58,5,1,112i6V7dJkBnA7PvvRg4BiWkBJv1z9iBjEzDgYTYRvo5AbBTr2qD,98
fun-brick-tiger,-78.87496527,43.93241626,5358.760196,80,12,0.854705811,11DMtsxzDWFGihKN2K6MHB6cv1NaC9877TYHGEHDaGSSXWKRkVF,145
scrawny-cream-penguin,-78.86042648,43.95298197,5363.870861,80,8,0.833328247,112KZnx7yY3ixTdV7vFdseb9AyNfnpJvYAQtQ5cNFyJEZHRCg883,170
loud-ocean-meerkat,-78.87693415,43.91844387,5382.168364,80,8,0.854705811,112qPUkEgsESVoAJDp94nmZU23GLccZueYJ2WueBRzQus6BAXp3P,132
short-wool-tapir,-78.86467954,43.892841,5409.134633,80,9,0.427352905,11dkdvedRm2pUT1B4qkKBPzhs97ifRq6778azFYSuumd1WCP5Af,103
dapper-khaki-sidewinder,-78.86467954,43.892841,5409.134633,80,9,0.427352905,11VFamATNmaYo5gfsSbT4j6xPqkMUnZJ7PXFjhbm8jTqykEx2Cj,103
fun-navy-elephant,-78.8413281,43.87817138,5410.253619,40,4,0.333328247,11eDmxrpSQxjdQvWh1bXLaSehMyebXBZfCBa39Me4Ues7ct5bq,103
sour-pineapple-stork,-78.87764612,43.92418957,5439.371544,12,0,0.862075806,11o5VLb5E4SPTHLkibMYXgk8Q3MVNzFLSmYsYae4gmP4r5jQgXt,137
shiny-charcoal-halibut,-78.87802172,43.92197016,5460.598327,28,3,0.862075806,11byZaQigg9xnQfycYRrprMoho8nZGF9fzmDGNjs1x79TiyfXDY,137
abundant-grape-wren,-78.8509899,43.88190349,5474.905341,58,29,0.800003052,1124HG45wsPk3oRFJ5cPKMvazRRsWaTdjzp4JSvuFafPUWFdPwAs,102
sparkly-misty-narwhal,-78.8771977,43.93035194,5486.74371,12,0,0.733139038,11aKzgBEqa3znjeucDeg1u1J2SoYBa6YreRQmwPCm22XUEdVAmz,144
nutty-linen-wombat,-78.87828152,43.91897115,5487.113545,80,8,0.854705811,11kiXT6FxDCKF9ep2ejJstni2hVd16qq7Ma8iaudRadsecYMksy,132
real-ebony-dinosaur,-78.84114193,43.87722814,5496.461757,58,10,0.5,1123uwSVoPEqmNBuHNsnEVvu5aPHxw7dWaXvbfsrw86f8d8GKexo,103
handsome-burlap-zebra,-78.87844979,43.92295366,5497.523232,80,5,0.862075806,112NUogvxuub9zxuNpwYfwkLWtUFmRw8Fxni362RwCDoX2LjHGmA,137
uneven-basil-elk,-78.85790671,43.88548363,5533.167929,100,9,0.427352905,112sC1bXLTn4Liw3QJXpTv4pXTRGpbuS2BRxhZDYFDR4tpo5Dayt,106
cheesy-garnet-bee,-78.86490182,43.95144085,5534.585571,80,12,0.833328247,11Pc6ZprqjQ6KeV4BkiajuohanrexcuMQ5V5GmhRmF3Fhz7wjTf,170
best-clay-lizard,-78.87890479,43.9234853,5536.310918,80,7,0.854705811,11kE1j31UJV4DVNhEbssb8cw4kdJ7uuWq4wHdvNr42LLo5Y2rKf,137
original-tiger-perch,-78.87151399,43.9440154,5544.941453,80,3,0.854705811,11V1Pw4m6cQPxfUCT73i2tNYZcjdBepQ2Azwm5DSvWh3pdwAr34,153
sweet-coal-starling,-78.87649066,43.93540703,5562.333323,58,10,1,11fCxiz5XA6e5BgGptm6o2Ls3p78aEswnd9kYBfghynnwqjjMeX,145
genuine-blonde-boar,-78.7406318,43.92682773,5607.608178,80,10,1,1123BiJVRLEqHkRRU6SFNdYTnrykD3NschtMgPrhJYRYRqYSASsf,156
tall-foggy-bison,-78.87953758,43.92648011,5611.341462,80,10,0.854705811,112VGgFyBEeu63h4bAbwTBpG8k4bDUUSfPKP2STkFNHyMji3wSdb,137
polished-charcoal-lizard,-78.85920876,43.88539542,5613.335768,58,8,0.213668823,112ZNbu8qwewoiiaNnEuZzJJP5xWQPgQom8LuLHsd9PKQAeKBEbS,103
brisk-blush-woodpecker,-78.85920876,43.88539542,5613.335768,80,8,0.213668823,11UCABv8xj657wX2bL8BwkAQTdv2jP8eTG3qhLefEEnV7CxbgvP,103
fresh-ruby-opossum,-78.84208806,43.87632082,5620.864388,80,10,0.5,112u5DcanPWz1xAAqfDJG563DmpwyA5ahbtyXCoC2e1yxjegnbHs,103
cool-snowy-crab,-78.8584695,43.88420844,5666.8729,12,0,,112T9KZKK7XWw1g5JeL8MbdvbMtUX1QsyzjjxNyMDKZ9fEFe7dHj,102
mysterious-linen-anteater,-78.8476679,43.87785507,5694.67785,100,29,1,11LE7QVT5crA5NEzJreBVyD7P4TMgdQsYmpmMiSnt2D6VAPZjmw,103
brave-eggplant-unicorn,-78.84987819,43.87883002,5700.940417,58,3,0.800003052,1126TLYYGmZu2UDJkSVfSDMYN7JFkY1AVdhm6fKzXDbFoZeU5rdz,102
bright-ivory-chicken,-78.84673232,43.87724367,5713.217749,80,0,1,112v3B2XuiSFzwR4YF6FNrroVuxhDSLx1skTBa1uFtCn3KHSCj3r,103
fresh-viridian-lizard,-78.76403922,43.88173924,5741.467459,80,20,1,112v1xN44TCRUmo6bjBJJeWpHCVGwgywpSHPn86qp6ukv8UrsAJB,102
puny-wool-snake,-78.86505184,43.95435674,5745.683517,58,8,0.833328247,11T6UKV44CPspQcNUTibgFwVQzq5zR1BqX4ftoCQgrmBXtNe5bi,170
acidic-concrete-giraffe,-78.87146614,43.89457388,5758.594594,12,0,1,112W5VzMB3Qrt3j9X1u223553DC9FAhqqAXVZCC4uSLPX1fwe4se,114
witty-cinnabar-seahorse,-78.87890093,43.93580601,5760.525169,58,10,0.862075806,11MRMvLot3wq1U6nRfzZKc9VL96FYcmhzzmBNWtwuWpAGc3xhQW,144
noisy-peach-goose,-78.87132359,43.89424613,5767.682484,12,0,0.854705811,11UTpNbHLUGVunYtQdNNvDfPdfRPyUYLYRHtGaYCANRjkvdiSYX,114
upbeat-carbon-sidewinder,-78.87132359,43.89424613,5767.682484,12,0,1,11wUVs39PtXRer8VYFdRGi5KggX9rFtSepjQhXnFzHuzNNCwnEw,114
urban-ivory-sealion,-78.87467487,43.94408229,5775.310874,58,8,1,11Xr6yyJ5fDJFQnWeaAWmH69NQkSiBR6KXtbqMXe8a1H3ZE8LCu,153
fierce-currant-cow,-78.88077649,43.93292188,5826.015958,80,3,0.826446533,112RTtwHBgZsz4gpA6dj7iaECgnsbWhYmi6EW1Gc4B42xgUijTSF,144
lucky-onyx-manatee,-78.87469229,43.94515017,5829.525918,58,8,1,112ay5bBJrPPA7eg2UQgqouu8na7AFwQSdAGro1t4Qs7EbCtRr9,153
digital-ginger-ant,-78.84995973,43.87747509,5829.750615,80,20,0.666671753,1121EV4ASXDj2BnPvzhJSWeQNUEY7nA7yLFmpwdB3Up5ew5hWbrN,102
stable-indigo-elk,-78.87021585,43.95079927,5839.571499,28,10,1,115cAgmS8fczGyYV44npA5RHqMasViaprb3gFiT79Mqg6BK2Hir,157
cold-walnut-chameleon,-78.87761816,43.90152358,5855.931988,12,0,0.862075806,112cUu8qFWYbb9xCPMVdtEQm1k3F5vYUcYVCzErTTbLQYbhdo1ZP,125
amateur-pastel-cuckoo,-78.85520093,43.87925685,5914.049334,80,15,1,112SujbA5XXo6rfbXYqdTP7Pe1tWvUwNfeC1yRvi6vwGJ1Szfqit,102
dizzy-blood-donkey,-78.88092746,43.93583718,5917.86832,40,0,0.862075806,112TXfrwdyJ2j6Qtsic2aSXA1VjPsdjuh2z5EksvnXymptYKeJaF,144
skinny-blue-swan,-78.77453581,43.87451485,5928.153757,80,25,1,11MCfziokZp14kDx38TkUGEEerRjKjVFhNeXEDTuMPtnsSKes9u,88
howling-caramel-horse,-78.87378554,43.89374163,5965.9731,40,2,0.826446533,1128cyEQqsqtFvNS9CyV6XnvLAXscDSrGyhWwyCcP7Kjym7tzy9t,114
quaint-mahogany-rattlesnake,-78.85532637,43.87851741,5985.274176,26,7,1,11SHuRDJzYvsLKwFqDryPfkN5fefLhYfTcWjAa4EgixF98rCkWJ,102
gigantic-tweed-opossum,-78.86204643,43.88267277,5988.971176,80,11,0.800003052,11suvHhckc9BsuA45yP7njjsv23uRRpNcU92qe9rEw6qAYsaFgU,110
clumsy-ruby-hawk,-78.86197521,43.88250891,5998.04955,80,11,0.399993896,11bBpT9sJj4hFN32wi7k1jvf5TmSM3hpe9RrQkNrXfvTQispNVQ,110
sour-magenta-blackbird,-78.8666549,43.88556543,6036.820295,58,5,0.854705811,112gzNyfytbfWVP27gJD94XSjGa8rriFthU4mZWbj351WMZ6GcqT,103
overt-charcoal-ladybug,-78.87089795,43.88915763,6053.911459,40,6,0.854705811,1126U6iZB3w3JCYkCSsJxTHZNLdsRvrbn1teWrgh2wdSChegYEJ,106
rare-cerulean-scorpion,-78.87413413,43.89197465,6092.744589,28,5,0.826446533,112uZVjbF1rHtd83i6Z4Dnes1V6ZpN14A2fFet6tF2fVy833QWWu,106
cheery-wool-meerkat,-78.87984895,43.89945988,6109.850452,80,13,0.854705811,112dwjBQNjqcxAukUgELpZCfqDBEJ5tUTSf1DvT1QngbbFpGqgsr,125
active-sapphire-finch,-78.88339772,43.90658653,6114.793012,80,7,0.854705811,11zyWqb4GouR44vaCdzUb9GaryZxTXzNvYapZc5kFZz2gQmErEb,127
fit-sky-caribou,-78.88245277,43.90338861,6147.423282,80,7,0.550964355,11243uaZVNasjAHTDQXbp3iAgjuvWCQQMfnx3npRbgSZRpfCqHEU,127
petite-yellow-horse,-78.88524423,43.90826088,6211.798123,58,7,0.862075806,112eumbotb4uQvf3H5iYuwfCACVmTeNttt6DLxBAkKjuF5tCQUXW,127
sneaky-licorice-scallop,-78.88668665,43.92903227,6215.460348,80,15,0.854705811,113rdhf8KYRMDP1nf9GhGjgEzRLiL7SJcDbEq2H8MVxKFV3iTPj,137
cool-rose-aphid,-78.83830742,43.8691551,6221.926883,80,15,,112gebGQCrYVnoGMbyGedQTRLJSX5XRSrx5S28L6Wz1pC71u6Trv,96
ancient-graphite-peacock,-78.84357446,43.87048564,6254.84675,80,15,0.800003052,112wPgpKxZHydhusQjEBmeUmGE8hNHKxrSezkVB6DRpN2Lf9JdRo,98
beautiful-gingham-pheasant,-78.87532349,43.95225344,6270.334805,80,10,1,11ohSjchPakoFRx9vP1WxnDXmBXHu466qPMFRCCg99uLXsd7TYz,157
rural-steel-butterfly,-78.87771917,43.89302466,6278.809151,58,4,0.854705811,11KKmYD44iAeKftaARDpMfBcfs6X6VXMEv9DbhVUky9jAthjFvj,107
nutty-lavender-manatee,-78.88710857,43.91100272,6295.013283,60,6,0.854705811,11271GL2UEo7botN6Kus4g7xBfbHaCuKBB7rMbM1njix4VZFySCR,123
gorgeous-pearl-rabbit,-78.84177487,43.8694267,6301.347973,40,4,1,1123oGxkiMKYQ5PhjkHZAGMnUMfXo59eDtichxQSDWPUzzdVMEob,98
short-gauze-rooster,-78.86274433,43.87913932,6313.760988,28,0,0.800003052,11mkqXRVgWZYoHM56nGugonYNjh2at3tktVKrbtkfNCigGXfo1x,110
muscular-heather-buffalo,-78.88312253,43.90030604,6316.722903,58,6,0.740737915,11C7LxccJuK3ZToUT5TgWbrHnH4zNYScqKqajuLPsMmRCt4BJ8d,125
keen-sapphire-opossum,-78.88085785,43.89612946,6338.725338,23,3,0.689651489,1127KLwvfF2GjNVh8psxdCtT5qaJeaGFXbmzSjDvaSHnYAFhYtMg,125
chilly-carmine-nightingale,-78.88403221,43.90136904,6342.469879,40,1,0.854705811,11dmbGgNj3PwSvavHSkg8HukrP6UNrEEHZfCueEJz5dzQ1koU4P,125
bubbly-silver-mallard,-78.86860041,43.88284687,6354.488309,58,6,0.800003052,11s8QbeWfPXerqZb6GpxuXhsRQWNHqrgHGigQxgGjpC7yQBSra3,106
quick-arctic-chimpanzee,-78.86425987,43.87954262,6363.315851,40,1,0.800003052,11yYLB8mSEdc2CBRQkzVhYGsxC5kyXDoVxsYruSumPx2AgXQVma,110
beautiful-powder-opossum,-78.84935032,43.8714442,6375.60552,58,30,0.800003052,112ZQPzgX61i8dFQpUnFPKBQBPAWAvSCXa8779pdwPGLUxoRS3mV,98
nutty-white-scorpion,-78.87771715,43.95158455,6392.448934,80,9,1,11cCSrq7E7FJeJybwYkc2umA9ZHFMN2cRUzzKBEch1oQKJw5R21,156
bitter-mercurial-worm,-78.88580719,43.90287941,6420.790602,12,0,0.331268311,112JZQwoizeD6Zo3pdtTWj7iVX9hjrHonUUmakwbDf6y3rMKbygS,123
faint-macaroon-pheasant,-78.86532101,43.87941444,6432.278228,40,3,0.800003052,11VgU8qkXsDKuFnoTG9EkhyPCbbrGEjpwhEWHBVQFPKurkn6tAC,110
bright-pineapple-python,-78.88955316,43.91353642,6444.438849,40,1,0.854705811,112F6RJhBeodJbxqqZQUM8JBP9sVGDtot9DupJvkXwwJ1H8PWZuY,134
atomic-ocean-carp,-78.85586539,43.87358934,6453.344895,12,5,1,11k1JzmrVwBHJGZRijEqjQRUnv6TSxBay83uLgy25fqmCUm5VtU,103
sweet-mossy-coyote,-78.81832735,43.9791795,6466.794541,80,8,1,112kNAzxJnmcNZuEEmX9MWS3wU1CXq29dWc9oF7pBqC5kxcTQDdD,221
calm-purple-spider,-78.87395852,43.88540725,6501.159131,28,12,1,11hGUv5aRRcWJCTdU7f6UFbMJtFU76gnW9dVVjEc2H6RtHg25Yx,106
brisk-sable-cricket,-78.86131999,43.8758623,6515.469465,58,8,1,1124DFQpfPshVnzsD7boyrRP9Ju6CCdMDZjjLFbsdwPVdrvmrAA2,110
attractive-tawny-hawk,-78.88651524,43.94147773,6538.112913,30,0,0.862075806,1129y5VBa2mdr7Tw8cSNjcCL8aynVt1RTi2Y7fWXAchsiExAmiAE,151
shaggy-tortilla-deer,-78.88816219,43.90418162,6556.91705,80,15,0.840332031,11oqS1BAi9qiDyxapF2bqsNpbGGeALWgGeaFs4DUbNfxnQJG9Zg,123
small-teal-rat,-78.88682771,43.94168155,6569.453691,58,6,1,11xcPfP84XYejDQnrGrWV3nMDtwcgce22Nyvy9erBKK8pznFeNC,151
blunt-coal-oyster,-78.7862401,43.97795879,6580.168244,40,8,1,1126gToULq9kkJTeVydqp6QY4VxzxaiQUUmixdHvVJZPrVVoGe2m,200
dazzling-pink-urchin,-78.88716703,43.94143343,6585.625499,28,0,0.454544067,1126ZeKZiBbbUq36ZfceXAPwJqzaySAvf72mPzMT14SW3pqUvJwM,151
energetic-flint-orca,-78.88743098,43.90147544,6595.044921,30,6,0.427352905,11Jw7F2uDf7f7zzE2B8cQR5vycGsr9RWubCQd3FaQdiRtgZqhQ3,114
tart-lava-alpaca,-78.80807441,43.98082623,6617.294177,80,12,1,112Z3uMtexWL7gir5qZeKXkKDcJXPF4awxshtKcdN1QasUWLTknR,223
exotic-vanilla-tadpole,-78.87868971,43.9543321,6623.094116,58,9,1,11WJH6GitcAF8WgtaMHUngEVwmyM9cz3XiBTzHdKSBGBKGugXWh,156
damp-crimson-orangutan,-78.88815813,43.941141,6649.691529,23,0,0.431030273,112saDpTkaoXr3e85nYiwmQGRCroXup5gF2nHZi9AMV91vgjfHYi,151
suave-velvet-iguana,-78.84920158,43.86853079,6653.098758,40,5,0.800003052,112AmPSKQsBTBGHEcxQb94pypJua1T65cqMp5tUkMc3Tauk9Hifg,98
big-brick-gibbon,-78.84833732,43.8680833,6664.604218,58,4,0.800003052,11iW5W3jPEbGUQMzjmUPLxvuXknxmiUoz4iAPzXR9y7rvzzgHjW,98
elegant-sable-tarantula,-78.85371973,43.87019265,6674.525407,12,0,0.800003052,11frKL95toqM9WU7vXhM8Ynp4eiTQJMvdN2fTn72fABybou9exw,103
micro-inky-cottonmouth,-78.88920608,43.90298577,6676.534568,12,0,0.854705811,11TvPPJ3qdA9UtHFSqtkpJzaGJDcY2MiuYMWooV2sGPQqnTcXKN,123
rural-plum-gecko,-78.88870661,43.90183864,6678.536496,12,0,0.097686768,11yRRSxmP9wDYnCPVP1vsj4K2AWUFSHYEnfBWx4fKpZ5ftrTcS5,114
eager-red-fly,-78.88983686,43.93883256,6698.02669,40,0,0.854705811,112P2ZpVXBCLpsZs1PnHTpL3KtgkDFTVBcJwotmcrnLk7Qxjrtto,151
narrow-jetblack-wren,-78.84939825,43.86795528,6716.939236,51,11,0.800003052,1129HqS8cE9pDFuM33bjDo62w87h1Mq9Q7ngua5bYqndRq7T4EXh,98
acrobatic-mango-ant,-78.72700407,43.91390022,6719.184471,80,15,1,11z5N6UhnjjAfJgptSki8YW71jMoUWjhZxgW4TvSnCRhVn2GsGr,137
clean-sandstone-python,-78.83637089,43.86366417,6743.160268,40,7,0.5,112cqeQ7bjPwZYwe9u6pqckq4uPR9Qwenwy6sW44YNdiujvMYSxm,81
icy-sapphire-dachshund,-78.79160494,43.98052549,6746.232313,28,0,1,118G7hvM6xxtCi9LYwLgSysSdwu4YTGNqvMuXci3JchKPLTFhoW,206
bent-smoke-platypus,-78.88788635,43.8979013,6771.942144,28,1,0.88494873,1128q68eAx8R9nE3D6u2UwyJ4k94fW2AFBUMvireXxux4tmE4so6,114
tame-snowy-lark,-78.88069059,43.88804285,6772.122598,12,0,0.854705811,112YpT8cradvswLKroVEXZKxLCDBUywHGnFJwWr5gPLNBxntDKhM,107
oblong-onyx-puma,-78.88190512,43.95349478,6789.999505,40,7,1,112rEnQQErUVGkQQkPwn8ASAcp9z7UQ9CnQNdXwGTxmLorzuja5t,156
electric-fern-yeti,-78.89096349,43.90342866,6796.573798,12,0,1,11K7F7GmcNxR3AMU9FNFiPNv3mZuiF5G6gznKjyNcPTMzLLsgws,123
genuine-syrup-meerkat,-78.87583232,43.88252472,6818.46156,80,10,1,119of5MbMNtxUCeM9jv4rpbqso3zgqyHR9rQ9s4vyG991f4q5rT,106
tall-gingerbread-raccoon,-78.8806094,43.95617131,6865.111613,120,10,1,112rM9qJD6dqVQx22VbjWZKa3MYNMGDPsvBZEZxnZKLwCxaZGHM4,156
restless-daisy-sealion,-78.83772695,43.86267309,6882.260329,80,6,1,112oFwU53EhUXDdxK41buuTKcdXQM6NT2uzCTjbY67SXCqv1xVmA,81
sour-fuchsia-liger,-78.8581059,43.870008,6883.367504,80,15,1,11ejm1GLhs6JRQt4R3kqEbUPSBaWNnJ8Sccif3bkqCF1bFSDcso,103
wide-teal-kitten,-78.88474784,43.89069131,6897.749895,80,5,0.854705811,11mTxCZdFijbhN8eprEhrNrfNwoCAtuMTTn4NBVRZU7EtU8MAPu,107
lively-butter-hyena,-78.86259746,43.87212115,6904.896862,90,93,1,112A9hQHATJvvMkErcPkGW5TaJMuYwLoyxrzCxmug5a4jRuTYhx1,106
tangy-golden-stork,-78.89036332,43.94363558,6911.53499,58,22,0.5,112uDABB8dPmnSjgbSV9rd2zYzmCeN83nrWFJufL7FEcHeVi2eWJ,151
crazy-cinnamon-raccoon,-78.87274882,43.87851691,6926.016577,80,4,0.5,112YWH6tDSQryDzk69mxqMkPYfX7hWznZRHEAHU5ckPyEQqaZfSz,106
clumsy-opaque-pigeon,-78.84801917,43.86529389,6929.724755,58,4,1,112HEV7tNSkFoJNf9YBFo7vJgwbbz4rn4zp82C3g1yswepY3rLZG,93
blunt-rainbow-canary,-78.89077405,43.94355138,6938.987787,23,22,0.5,11pUt5C6MfKgJsaXe5YiwFvUJvCDkTCw4SssRRSSHHWctkha1iz,151
lively-vermilion-orangutan,-78.89241765,43.90214863,6950.627219,12,0,0.854705811,112iassF5Lc8GbGLjoqhFC6yfYz3yQREur4Cucs9RhPXMAAfNFzk,114
digital-mahogany-coyote,-78.85018488,43.86565328,6972.674712,23,0,1,112wbgtnRh8JUx6zDkocrRX4Gk53pqKj9fXRvZa3wd9eu4V2TqSQ,98
stable-pewter-hare,-78.8349927,43.86100274,6991.99872,12,0,1,112BaTKvp2TL3a1aALGw23Z9a89VRTYsx168DnKxoiCtV4dNJNu6,81
colossal-fern-giraffe,-78.87728624,43.88124516,6998.95833,30,0,1,11CgfQ9EA7kjHWEi1LnrV9K4VF59QFZEybeWQbUwio4RofD1mDo,106
helpful-lemonade-rat,-78.89280987,43.94206254,7036.040282,23,3,1,11WuFgheFQARFzttka1dWsKobDfEi2hxNrexdPRBhcPRtSVcRLn,151
hot-dijon-lynx,-78.83051994,43.98302939,7054.520533,58,2,1,1121PdWys7iVjZZrQpyBYVzJhoPRENb4fSULERKYGDMPwRhBiMgD,232
droll-juniper-stallion,-78.853242,43.8660085,7055.275823,40,8,1,11AeqG3HU55WQhajgLp62uj3TRDt573Yg3kwLkuBGs9Pz9H2zCY,98
slow-watermelon-mockingbird,-78.88263537,43.88532398,7069.949219,40,20,0.569793701,115tmPydpyk75PAezdksCqRJd7ihmAX4jAqKwPSNkjjEf76tsJf,107
modern-seafoam-kestrel,-78.88263537,43.88532398,7069.949219,58,8,0.666671753,11vuFvum42W9Q2DBFm9uKoMASG64jHxTrdQfgu8HySqLvPDx8zz,107
special-felt-deer,-78.87278536,43.87654648,7080.178423,40,3,0.5,11U3RifVbAurPu2yEU9pbqHDhTdXjzH2oVHqVMuzkwqXv4f96Yu,106
tangy-cedar-octopus,-78.88678143,43.95338859,7119.80569,23,0,1,112voC6efDGw8f8Cdh9RuFwWGk5G9i2ZNuXneGfkwv8V334Ho16w,161
zany-azure-eagle,-78.89416608,43.90000494,7159.682455,12,0,0.010894775,11bpdindB9aeyt4FKNVqX4cDH3K6dXLVKv5ehxo35nMvkXC9bUd,114
cuddly-berry-mallard,-78.85132721,43.86417051,7161.21849,40,0,1,11rfr9K3fYe68SRpXzNygR8XwnfyRVByH34YpQ4vUjNBq3ZkjDn,98
sharp-opal-dinosaur,-78.88855608,43.89071355,7164.354159,80,6,0.854705811,11goEnwR16j1zPaELUt2LWb6m3Y8ZVhGEw3RjbFAHRRrtdanXFf,106
brave-cinnamon-starling,-78.72050102,43.91798843,7200.25848,40,4,1,11hstku2c2EPpDRVipmBLSuLrHpSz9jtteZgRJv3YWi5yJWmFaX,128
skinny-sepia-anteater,-78.88934981,43.89099698,7205.780419,30,5,0.854705811,11XWiBpR8hq9TL4aMaKmD229v7ygSRibBGwUmhREaNEbPeaVZGT,106
shallow-carrot-chimpanzee,-78.72057269,43.9155654,7213.385546,80,11,1,118SFngdqbqF5uNCS1ZhL7aZVFw8U8YwaRC7zU7LWnNh4B5zXNw,128
straight-golden-dachshund,-78.8992459,43.93065331,7239.285818,80,8,0.854705811,11ASKdshiiTJqv8br4k4jdthDXvGoDB9usj88UneRwfBYQcj2mh,147
colossal-mango-donkey,-78.8253328,43.98551796,7241.586945,80,8,1,11HmHurXeaH4fxpbvHdPeJncjwMV6x6mev531ja6XTeegdz1dzj,246
handsome-azure-yak,-78.89942193,43.91258361,7244.167519,58,9,0.813995361,11TLAjP76Pno19on6VHVc5zzxUJF3qubKBmNU3p7cAsPbPiuVgJ,131
original-cobalt-bull,-78.84623303,43.981068,7250.008558,80,10,1,112HWWw2LHfXMpNwvM6f8VBCb3MQUs5HD9BYRXZCsPFjaot6NuHZ,229
rough-taffy-gorilla,-78.88440125,43.88424801,7254.618929,23,10,0.569793701,11fqFBxaAzY7EiMYY13sKQNAQ98ZEsHx89REi1tL5E4b1WoPFY9,106
glorious-cider-bat,-78.72059584,43.93063682,7257.277771,28,4,1,11fFGDw3sKPV72Dr8b5pwpeyHdvrQctn1rxvax817SsmWfMy9MJ,149
helpful-tweed-wombat,-78.88452623,43.88350851,7309.792873,40,0,0.569793701,112YN2AiSy8Zy2oASZCXBzCGWeMU58MiwXpZigZUQDbUDbwzo8zE,106
prehistoric-misty-tardigrade,-78.89100575,43.95332653,7411.984057,60,5,1,11upYtTQ7xAPZRpxV6UXJoiBZEwUwztPR2FftuWqk7QEGATvjVZ,161
real-honey-viper,-78.90238528,43.91733186,7430.049774,12,0,0.813995361,112k9La6QzoH5fyKiDfM16t5Bf8QTNkEC4LDqPFjdm5ys8REcLH9,131
hot-paisley-sawfish,-78.71763986,43.91705391,7435.666641,28,10,1,112Dy4skcJpdaihNpBkXs9Afe5jeQDgbhGCLV4afqKkcfgMPmE7m,128
obedient-azure-ostrich,-78.71741385,43.91549427,7466.818483,40,8,0.5,11LXGH1UgKA289VEwJUPBQDe85k4JLcc2yEC4yFbb1a6WLsbPEj,128
shiny-mandarin-platypus,-78.89133614,43.95459834,7503.885625,58,6,1,112uQKy4foFBSk9Bewub3rvqfiJwjXvEvGDvYw9anse8RspLxWxD,161
tangy-hickory-manatee,-78.71669036,43.91796062,7506.082168,12,0,1,11wfEYWakTJ51di5VcZAV3CC6ZCoF1gTrc4NtVFW9Wo1jJgx68u,128
energetic-maroon-trout,-78.90065189,43.90411906,7524.449513,40,2,0.813995361,112WpEPaXv19ZiCmSDsAedCFT5p7YDBCvhL7e6FiXz14QP8nXSZk,130
little-rosewood-scorpion,-78.71674852,43.91446999,7530.71698,80,10,0.5,11XgftY22PL9qtqT3HGuyNz98xtrkUCpjazeWdGUy7RmVf2nbmj,128
alert-plum-parakeet,-78.89412129,43.89117847,7537.850429,80,10,0.854705811,112Jgg1qYrhKAiFdsuArxARSyHFYXu5MJBhiQ1BSNk5dkRg1bUXe,106
perfect-indigo-dolphin,-78.90236556,43.90805202,7560.435812,40,0,0.20350647,11RR6o9BUpv25bYd2nTX5qpRBvxHJrBNGtdQSuUiHXoLDjkUpsh,130
virtual-seaweed-unicorn,-78.71698164,43.93262078,7578.019869,58,10,1,11wHQ1H7cMYu9JMbb2FnwgeiCPPFBavHXaBpaNhE9ZwCNKahFeQ,149
clumsy-satin-hyena,-78.90166013,43.90489406,7581.623231,40,3,0.813995361,112J6CQovxSwgcJ1kso51KBkDHgW1wzcn6CggPWxyjrp5dJWA3x7,130
brisk-crepe-moose,-78.90418715,43.91428403,7601.881121,40,10,0.821014404,1126gz77QGg9rxatR2CDguMwnEoDwquZ1rC5oFPhAohHqrqBJkur,131
zesty-basil-boa,-78.90078533,43.90186022,7602.369718,80,8,0.854705811,11dE2v3rZtGcTxcNHwTLWFXpREGiJbwzaPtdwEQaokvqtTsHHFH,119
innocent-sandstone-python,-78.90287403,43.9076799,7608.631834,12,0,0.20526123,1121BjuQKbKucYYrVrk1VVXYGjNxr2BqQEbf9h11ZEkE2NVa1G2s,130
lucky-felt-wolf,-78.88894215,43.9593756,7618.639653,80,4,1,112HiQusHWpxEq95kMH1pqkmL69yMQecKxVZtyHSuVBkDqkKrjQ5,172
perfect-clay-ladybug,-78.90370432,43.91009822,7625.464997,40,20,0.20350647,112HmP4eYv3yTkLeqf9LMkeaMmKC8MX5BWhfAzzJQbRTkoq8JCtd,130
stale-punch-salmon,-78.89945319,43.94498651,7647.520427,40,5,1,11rcBBsRTgfuUbaZNqEedDXQJsmknEHfbFJY3jP4uKhA4bYLWGs,150
boxy-watermelon-elephant,-78.89477455,43.95273257,7648.431383,58,5,1,112AwnG3K5C2ruT3c1Wf4QNgatqXbB8L9PtETsj2CKGtfVPG72KW,158
swift-zinc-lynx,-78.88942448,43.95945537,7655.772669,80,6,0.800003052,11H7gCofBG1FKDDSQRQsW48otsCsAB3NnDy46SLWCkH6BRaEjyc,172
savory-raisin-butterfly,-78.85131413,43.85899952,7674.607384,12,0,0.5,11fz8gLUJwSjCWtqj275VLziVdgTRXkVAfPQFjcnjBiHHowCpW4,98
swift-punch-flamingo,-78.89291729,43.88687406,7678.138444,58,10,0.569793701,112G7ic4tHTE2Nx7j16Hxvq2CYt7LUrQ2PiPbSnLUN4BhM4Vzu7o,106
ancient-burgundy-okapi,-78.89384579,43.95470903,7685.741094,80,8,1,112QRpUVssEYQTgcVUAiBVXF6YgpqGHUncpcvNdLGQL9prkX3t19,161
sweet-seaweed-tuna,-78.88895992,43.96044364,7686.321811,40,7,0.533340454,112chutvNTda4gfi86hUzbo2JTRCShiuBMyEaN6ErZiTmZ2SVWn1,172
breezy-ruby-kookaburra,-78.88568123,43.96370542,7687.378237,80,8,1,111FQhCfUZLixgvK9jgszd6XUowKpDRuGnW67iFYcjUM9vQvCuM,163
ripe-sage-halibut,-78.90446226,43.90824665,7721.598917,12,0,0.20350647,112RU5e9YwJr9ds9MZJdecLECaQgXZJLSEAiBwm7w8eBVNXiM3UC,126
long-turquoise-weasel,-78.71424137,43.91435545,7732.352988,58,6,1,112wRkC83dqSgDCzq6USkDVHnbFJDtkc4smCDDLBiYfHoY3BQkKK,123
dandy-garnet-flamingo,-78.89053203,43.95994283,7759.786979,40,2,0.800003052,112fwhunFgsdNC48XghikAoyp2xZcHdZKsDGhLs4cUpyFC4QTYhN,172
zesty-ivory-alpaca,-78.88813809,43.88000155,7772.749976,58,10,1,117dZe2V2bfrG5b2Ws1cbEedFaJQHC4KJmGTQhf2SiHwFTdWpbs,99
steep-crimson-condor,-78.90694648,43.92112759,7783.143266,80,10,0.854705811,11f8FPDWjw3HAfNqmBAzuGHijVaVtjrBrD7TDM5c9nzTmFebuBc,140
keen-bone-chipmunk,-78.84764446,43.85671829,7784.819689,40,5,0.5,112KEyv4SXtNkTziTWuwtdkognjm1AXPoSsYfEqm5qhxYgVfPubh,77
trendy-lipstick-lobster,-78.84788504,43.85675822,7788.259781,40,4,0.5,112mV81gMfyj3MnF4wpdrXEwyfpVuQm8hgZskmZv5ngLxZHHRMyM,77
ambitious-burgundy-gecko,-78.85257143,43.85829604,7788.977371,12,0,1,11Jigi9cWedwzgfNzc9CEarsqVJ24nWgjTAGx1HocSDWxrS6RCk,98
restless-chambray-swift,-78.83312984,43.98955153,7808.13177,80,3,1,112Sp1LUkXKD5tdz7PHk3ntAjaiRj2H1JE1oW4ppNafvsAMfX3Qa,259
strong-eggshell-porpoise,-78.71397681,43.93394543,7841.04316,80,10,1,11DyVusb5qYwVQftpG5LMqXN1ABAS1Es4ct6AozAAi6jKVa6zhh,147
sunny-admiral-cuckoo,-78.90563051,43.9063109,7856.636192,12,0,,119Xc1EUzrUBGdZTBPxUtpmU45vqudtCtoCuKhm5QPFyh1neL67,126
droll-lime-worm,-78.90769472,43.91668881,7860.133228,40,3,0.813995361,11DHXc6bHresDj29mnQJ5dnndsujf9WXhapuTCuBqVNbff6oKCm,131
vast-frost-porcupine,-78.89408549,43.88493886,7867.935159,40,7,0.569793701,11wjnpaxjcbKAqVqhcYQeMffwcX7sh3qNcr4q5PWMjHi9rRkkA1,106
rich-sandstone-griffin,-78.89181162,43.88228201,7870.474539,150,15,0.569793701,112Suz6UJLkrESmSwmHftXNVHpp8oAvki2vhFXwnr1f4b1dx68bD,99
howling-paisley-marmot,-78.88884348,43.96377192,7893.892248,80,8,1,1125vgvJ85uFKhY2prgjdndtKC151go39WMxZp31Czn9y2WX4q3U,172
wide-seaweed-sardine,-78.90687132,43.90864494,7903.73168,50,6,0.763946533,112jHQfYtCFfHcgGpPifNpoLRfQ4yTcpqx4YxhsJCwubYUfg3Sxy,126
radiant-obsidian-coyote,-78.88190106,43.96992783,7905.271875,80,8,1,11G59BK3UStbsZJhM53o6vguykXQiDhCLffBcKfmhbdVvGDUDRn,172
icy-brick-millipede,-78.90326451,43.89831679,7911.826126,40,50,0.854705811,112CLDB9v5QRoGiLatMrMqEmPe8z6By1aLZkTQSikgPCEar5m71e,119
rapid-cinnamon-sloth,-78.89435496,43.95844479,7929.359224,58,8,0.800003052,11hZjQ8qubrk8fPB8oCyg8wkA1t7Kn1cgzMcgQrbjKJhrxRmoW4,172
cheery-fiery-marmot,-78.71234776,43.93275995,7947.664875,58,10,1,11p7SkeEkiDTmVBFwgzVWMbst3UZtAUgxmLF3wSp3orWCsGACDt,147
thankful-amethyst-rook,-78.90906898,43.91676388,7969.742026,80,12,0.813995361,11hb7W7gvNQfpdjYdPotgaVWZMYfx9rTGynHzVsn1SuiX65wNAG,131
bubbly-hazelnut-albatross,-78.889761,43.87859789,7970.260968,12,0,1,112t6VDrcYQyNW9pkiTduprsxSxY5AS3XsKeVaSNYGyHMfhT91Au,99
gigantic-juniper-chicken,-78.71398793,43.94018844,7993.392575,12,0,,11Zep4D2ZowhNoYjGWdj6z7jzb3bLqLSQYNZADpYMuaa4LhZbMU,154
digital-pecan-viper,-78.71173701,43.90906705,8011.29359,40,6,0.5,11TgfuGF98Ua6REKvvaFpioaLnGUYjDM9H7mu44JGgv9N2rgKhF,117
cheesy-chiffon-swan,-78.89096953,43.96351483,8014.602246,80,8,0.800003052,1122noxGoZkAE88xs6pNULozP9VPazEpasX8hhp47maKbpDoW2x4,172
mini-flaxen-puppy,-78.90958195,43.92871143,8036.719372,80,9,0.854705811,1122KUBQgoRRNeYrgV5qVjucSHtjN32bNY96hJoXMY2U6iCijgGT,140
oblong-brown-eel,-78.71255737,43.93842718,8055.904947,80,6,1,11GRs9Ny5ThDRYnbXAFYReozgeR4JNYxvdm3XiTmGJqNg9mwNQt,154
bright-mango-panda,-78.89473016,43.96033266,8065.860232,80,5,0.333328247,11ywCf2YviiGFuPQzbrMHuzTLVBqDjSFDKW8gXmyQWWiRKf4kGQ,172
broad-coconut-otter,-78.7114691,43.90689176,8077.014271,30,0,0.5,112BWHfieybcV68i5tB7ii59fYJdTHG6ziDARUcXpiiTe8wkKLsm,117
rural-tartan-mink,-78.90388804,43.89461869,8100.586044,58,6,0.854705811,112BzcTVVW6rqY4VNXomikrCa8zr59B1sE13stc76Y25XnPpwiUt,123
precise-lead-loris,-78.89139827,43.9644987,8106.751635,30,0,1,112aBq4vQ7TG5JiNzNNvP3momE27GaJUgaXP8fj9SLkeiCkQr5i9,172
bumpy-daisy-tardigrade,-78.90784206,43.90317916,8109.784843,12,0,0.090454102,112B2m6M6FJdcWkjiYCSExje3ZTkEbcC4VfLsokyZiDPtS3zHPfD,126
brisk-marigold-quail,-78.89240911,43.87903623,8113.924575,58,9,1,11ATKMvBFESAMgVubP7inf1hNaf4L9qUkCM7M1xXsbjhqs24jd8,99
urban-rusty-chimpanzee,-78.89501602,43.96098853,8124.522194,80,6,0.571426392,116MgHcJmZ1T8dLC7LCwZhvPm7mnpRDUQLTZ3fk1UWY1DG1Vn5R,173
gentle-wooden-condor,-78.89275611,43.96350591,8130.749438,60,5,1,112oAVabNU8XESgAQmNeoxEfyNJ8oFtnXprA9QmNiMGdyUrGAsVn,172
chilly-peanut-bobcat,-78.83359054,43.9926727,8153.915882,80,5,1,11BeGEbjRcJiVVBindysf5yQzeC4eHuKrLimBiAnbrwJ25bH9vN,274
icy-misty-skunk,-78.91143366,43.91654639,8160.831285,12,0,0.77041626,11rkA3y7XWtuKyktVez2QjoymEXBiP7zq6mCj34W2NsTVyTE4j8,131
salty-fuchsia-turtle,-78.70989532,43.93432903,8171.123618,80,10,1,112bt3eHyryeG5uj96Sr8AXCwcPvxv8H6F5tBChw3DFc2hy9Taph,147
orbiting-orange-dalmatian,-78.90547583,43.89518536,8196.903952,12,0,0.017440796,11MhizVmDhZNJuSWoYuanQYFmBpw8sUrCeCcKNPdsdkDwcs9WyH,123
acrobatic-wooden-quail,-78.71134406,43.90245783,8198.822627,40,5,1,11xia8QaMYmcjfAuWpZw6Mbk8BrR9z61BRjn6PbZoQwZ2Go2Vng,117
long-lime-crow,-78.89454904,43.87984649,8203.84592,80,9,1,112DHDgTJ7odEfjDhiQm3pX9oPEn9UUrS1dxM6anjKPeo6jLQPhf,99
swift-lava-ferret,-78.71196832,43.90027964,8215.943106,12,0,1,11xJFd7siXDkL5CBfHhd4ZvfHswzpwjeX3cfVxFgxuCavkCUVpA,110
quiet-banana-giraffe,-78.84309393,43.99135567,8225.118494,80,4,1,11WFncUYb4ahQPjxTshQoQPLQk5bsyshDj7sC4G2GU1qtyXHT4b,251
atomic-taffy-salamander,-78.90876916,43.90120366,8238.797382,58,6,0.406997681,1129NPQ5JLmuidb5zHpM7MSwVYU6o48XiE5Vb1hMAwPiWy4LrGSn,123
raspy-mauve-bison,-78.70801357,43.92944803,8243.076736,58,11,1,112LETD1KSMjvw71yX2Zrd3upScKHvr939oFdSKvegD5iEFMNeT9,147
narrow-pickle-rat,-78.71143577,43.94204554,8246.503609,100,10,1,11NvmHnaMyP2RLjmYzjfrG8Ym5reQJwKkvrz9dyacXxRDqCsFa4,154
dandy-azure-eel,-78.90793876,43.8987856,8252.151379,58,10,0.410507202,11TcEhXmjUVbLMLjXxEq83XhqMeygRNAcMfMDfiTns7FYTPExut,123
stable-latte-manatee,-78.89704579,43.88147588,8272.33082,12,0,1,11SDEkM3p6PahkjLasBNuaRQ3mR4yQhasrEcVim6K2Ldn5zdGQw,113
bitter-scarlet-terrier,-78.70795472,43.9329392,8299.14235,70,14,1,11hqpTA3PBZxo5cA4JLzpCBBtTCUHKeCXDmtztuVjziktYtTen3,147
kind-tartan-pig,-78.91344467,43.92372234,8309.23192,12,0,0.5,112a89euBvVcUGQSkXdFYoJAFVbMbH6p3i4fzDu5PK1vNPxaJZxZ,143
brilliant-brick-lion,-78.89874905,43.88282191,8310.316662,40,0,1,11x9ZDk7FmvByy2FQSGrpqjx3UH2jbpsGvyJ6vCseS86bYSmZmc,113
refined-metal-puppy,-78.89934797,43.95911802,8311.784094,58,8,0.571426392,1123wKgvEq9GTewToxkfkEsn1Ek8E5AZmssNrk9dGmoiQzpJ9y52,173
odd-iris-wolverine,-78.70840628,43.93605911,8324.471877,58,10,1,112EQdUkdveSV8cqWcjk7VUXnGktDChgw1z9y3EDgbTFuXMBH8ir,147
scrawny-ash-nightingale,-78.91353079,43.91674087,8327.566516,58,4,0.813995361,112ShsXXN16sk4McyvNthruSB6imgj3kq59JbwnFBb77ZoWR57XQ,127
muscular-mossy-camel,-78.70886462,43.90447812,8338.277559,26,20,,112BF1g13S3zmYuB76CwRP9iUx4KMYbYTV3FqqeuYc165rHWzyff,117
prehistoric-rusty-jay,-78.91395323,43.92335011,8348.840989,40,7,0.5,112KwgnHnqfSAFydtL7wD4z1eGBKq2Lss7yYHVB9kbs1HsJMJsR6,143
restless-ruby-piranha,-78.70742921,43.93483026,8375.887076,58,6,1,112h3RzQMsYTNrZuarqcSrfzEbSMEzRDqCWHUM2tHq6mK5BCtYnq,147
big-tangelo-stallion,-78.91332284,43.9106237,8380.138793,40,5,0.813995361,11zuNLcYhQ4KQ7CGsFgYvknqq37uCHAtM2odETj6rnfSHVLk4n2,120
ripe-coal-dove,-78.89640073,43.96365195,8380.543754,40,6,0.571426392,11oV4egBDBqxHRTntQ7QhtR22XgED8Fq3qyinQoLbtKojUdnFzX,173
shallow-red-deer,-78.91458637,43.92223804,8397.285726,28,7,0.77041626,11Cxd2QC1WB4Uzr7PVxBBVd14BFeuaFEYsdF2mULcYZy2wkL6VX,143
perfect-pastel-jellyfish,-78.91420686,43.91213838,8428.379921,80,5,,14AXpc7WFq8B5mcNz9JToXGJ6VxZSS6k69cnaDs4Fs8WPm6JAXc,127
eager-khaki-mole,-78.70803578,43.93934621,8432.789423,40,6,1,112XHrMTyx2omzZ7goXZ6Xf6ug1XBtyGpsYQEnpjLj5f6bYDpuMp,154
future-tiger-chicken,-78.88503612,43.97455523,8442.73562,80,8,1,112HdprC8FGSrAs27HvLH3eEciEsbkU1FUE8WsdLFuYoAwckeepQ,189
bald-red-mongoose,-78.86491622,43.8563914,8452.263932,23,0,1,1124NMv3wgzd9sNK9zrTPQuQ13ik48fqLqo1gTD3rnB1wri9vo1F,80
young-tan-llama,-78.70764749,43.90320943,8466.005022,80,10,1,112hZgrVoofzuazgw3j3jWvPKywHFjLwv2ssc1jYMpMntXkEE8yu,117
creamy-cream-bat,-78.90013426,43.96092164,8468.671584,58,8,0.285720825,11cv62ux2z3EkvSaEu1YFAz3F63LztnzjSzk6z1Nrd7hhyuJYV5,173
soft-latte-walrus,-78.89959843,43.961746,8480.111975,40,3,0.285720825,11q74fR7VZC8byjcUsBPvR6wpfFDHdAPgb9dL1BA8oNAjKnVatD,173
sharp-macaroon-mantaray,-78.70759608,43.93988166,8481.346938,58,4,1,112B5B8acvq4P3Mp1fBqXriHi7DEQPVNeNFW2uMYkVPTwmbRyhF6,154
skinny-ultraviolet-turkey,-78.91570145,43.92120562,8486.253179,100,5,0.821014404,112oM94UzENiojrN24txm3HJaN3CFCXGvyF3kmFZ4hL9PEW7hsSC,143
crazy-mossy-moose,-78.89852673,43.96339473,8506.558776,12,0,0.571426392,11mQh2KToE9hPuQo2SSJWtcHM6dqRsNcbqfhFVBrxJfyYoerRGC,173
clumsy-pink-gorilla,-78.70445803,43.92794046,8510.860335,40,7,1,11o524YZxEEHYm8btwQxV1NQHpVy4fsUS64kMd2TyjxWfsdfHvH,125
exotic-fiery-oyster,-78.90243841,43.95902018,8521.41381,12,0,0.571426392,114VsXQcjLndM3NsR5y8xeGkfv5m4JKAkFLNQ6Ypj54jXjkDdFe,173
nutty-burgundy-ostrich,-78.91619156,43.9197658,8527.389963,80,4,0.813995361,115PaYNTsAjBPT9PxGXsSUef5dRx3bKUBujfTTt4ejfhmQm96xR,127
hot-gunmetal-kookaburra,-78.8269873,43.99705842,8528.2398,80,8,1,112Am4MvKMa2cGfxwXUivMahQKWKeaJzwPANem6vL2o4TuTtpSdq,268
fun-jetblack-boa,-78.70456904,43.93130779,8542.408113,80,5,1,112x9j6FVw9uYsdcsnT9zyHcCGxV9cC9iY4xdzvLw7nyi1y4unp,138
short-lipstick-mustang,-78.90323342,43.9593037,8592.467417,58,11,0.571426392,112NAZyvwyTKvxMSRo4ZB86jTqiwdDH2rY6xXCMC7iLnUR6JCLJM,173
striped-fleece-viper,-78.90417999,43.95839509,8609.979327,60,8,1,11zDnRmhARkEQSmRcJtrYDyHoP6kUYkfroF5gLvX7Gzs8JAwWtW,174
hot-flaxen-deer,-78.9168306,43.91302811,8626.473665,23,1,0.813995361,112A2RkRtaQJm2PNNMkPUp1RgSNMV81vjJUEMn1mJLNsBSZfFkNS,127
mean-carbon-liger,-78.8926945,43.87148239,8644.658898,52,5,1,11gVHj2iE9rKvo29hj2wTtSCyzyWhRrx92hzkLgtTpnASat5Xct,90
sunny-gingham-tapir,-78.91476448,43.90265077,8663.420057,58,6,0.813995361,11YqPtNsocZHFaCc8gf4JjcHNY5uLkvTrBDEHEqhrb9BCs6y6TQ,120
jumpy-infrared-tapir,-78.90630248,43.88528758,8706.904582,58,10,0.854705811,112WEv13gjbF3mFzw4QYubtE3xJGr6LDmbgo3zTakBadRZUhb5sQ,117
plain-fiery-swift,-78.90737699,43.95648902,8739.465933,28,12,1,112G4YdeFxpAgLaPTAgNvgrJtoCXvGPzUKnowszbhnCnLdAjGT2E,174
sparkly-vinyl-armadillo,-78.91883998,43.91609731,8757.692628,58,7,0.813995361,11XgzQb7762uqxK67XTxUwQv1vad3Jo61CpTivkw825X3AHVkyd,127
electric-teal-sealion,-78.70339866,43.90371641,8785.191389,12,0,,112Qn3GWvrK8abEa9FjA58BMSLEHcggnAtCbMkfZ9C9pv7ybeuFE,113
atomic-cornflower-mammoth,-78.90631095,43.8837687,8786.399493,58,9,1,1123fGJb1HYFaYrAwovCQHtTXY8CCvukRWkwShVA7wsdcCyYtRZ3,103
daring-chambray-fish,-78.89627833,43.8725316,8795.463373,12,0,,11HDkuMLoJQvMrNhJfikfuKavHzNLj5oK2fCHpJZLydvkoY4o6s,94
soaring-charcoal-jay,-78.9065917,43.95879357,8801.308339,50,10,1,112FntUpNVEKKVzXwWxcJa6ocXSZkw6N12QYkPv61t1r7CTx97vF,174
dizzy-opaque-squirrel,-78.91844342,43.90903679,8813.101961,80,8,0.718643188,112aMW22f6W9nLA5LWVhiUEndoGSh4Vuc8Rw5ULBhMPpeTj9wuni,120
passive-strawberry-osprey,-78.7035419,43.90145774,8833.362354,80,12,1,1126wVFEApggVhkaB5RwCxVCAnUEYiuSNBF7wz2Ln8HLCUWP8HrA,95
virtual-mauve-salmon,-78.90714556,43.95903722,8853.2798,58,9,0.5,112EVy5ULkP1NmPnHndg8CnN7Wy4rs6LQBn3AXDaegLBiUrPqvaB,174
calm-blood-seagull,-78.9159403,43.89919591,8854.046786,80,6,0.761901855,11CujCP5fJLg6ckBs15mWv9v74YFQqRFQXXCVE5jUjm2Y8Liy5k,118
daring-cider-goose,-78.92050265,43.92093417,8871.950948,12,0,0.800003052,112TPuNFf1MYzoaVZuMV6387a2mUtEKZ97MnyidFkVqBb5sPLLtd,143
delightful-fiery-dog,-78.7021664,43.90396687,8875.629811,40,6,1,11NPxW6j3HMpZh7awGzGLL88aRfRFomfT5NdEuW2Xxceqw8oLpP,113
huge-carrot-pony,-78.70031754,43.93181483,8888.226602,58,4,1,112r4r2CFvctjRyF8Q2RGyc5W6L7Twvc6FQdNSaMeGtfzYyhhr9W,138
chilly-powder-stallion,-78.91179744,43.88969287,8896.741598,58,3,0.952377319,112vir1EsVi1z15KbKV4YRNUfQbotJ8sLN3YwTxqSFBy7gtpcQnV,117
petite-aqua-wallaby,-78.70127704,43.93715095,8909.570939,40,6,1,11SR3srQrxYKHCjJF65QiVQzthxqaN5Zs6edDXCMGCwyujgbCsU,138
keen-tangerine-wolf,-78.91868203,43.90497069,8913.143409,12,0,0.270355225,1121WGBUbT7BqWVvkKQhmfBZ9MkAq7fxdpj8PfH7wVCZURXTf2vi,120
noisy-maroon-tardigrade,-78.91618932,43.89771662,8920.234852,12,0,0.017440796,112FfKGaQ37v6rFZTpCb4bh5q6PquR4ecLCZvyDddeeU4tNPXTtx,118
rough-marigold-snail,-78.91647509,43.89837202,8921.080057,23,5,0.761901855,112TdVcrBMgCPmLLwHHx7jtxpgQggVxxa9HeDKmMGYcBAVsBNznw,118
cool-opaque-duck,-78.91185931,43.95342606,8921.320659,58,6,1,1122CBs6WobvhLn1no4ZdHQh9rWZjaUJLLfod3cLKPpMdYiR72sY,159
uneven-ash-osprey,-78.70473561,43.89541846,8933.728192,80,10,1,112vBw5aMcPZtFqARkQC5LTeojJZ6UmyPKimZeWTpJYgPUV4aksw,95
smooth-watermelon-cow,-78.69956962,43.91038087,8954.955278,40,4,1,112Cbz5eWCWAWwZKHoCdAhGLNXdP2E8sxRsLckJ7BFFQmxupx7xt,113
ancient-rose-weasel,-78.70198246,43.94137919,8959.115755,40,0,0.5,112YptXFqrp2QukhnfvByLkPTUFWu4mPaZoyGKccTNbqgi6CtK5u,149
suave-slate-tapir,-78.91791217,43.90012994,8978.544805,40,3,0.761901855,112qhLmGzW6oucKd1aJTyBBdjuTrQk5WcQjsco3zQfSuLcRLzaPh,118
howling-mocha-sparrow,-78.91519736,43.89390371,8978.927656,60,1,0.761901855,112E3s8fzQCxybvD4kNuPJdbfiDDeuoGdcvRzxRWi8NohDhdGWUF,118
immense-tweed-wolf,-78.84783403,43.99762167,9007.827062,100,8,1,11ggZpKU9KJFZwkCpDXue6yeCM4RTXLtFq68D4wmCAPwvqaHWS9,265
old-sangria-wren,-78.9212815,43.910418,9016.452744,40,1,0.718643188,112qVfCBxjZEXFGkpeTYTo7cXFE52h3FdC7w7wKSpPEJZGQvvR64,120
wild-scarlet-tortoise,-78.92232197,43.91895352,9021.854899,12,0,0.399993896,11L1jKKAwDeBYzCCQrbzU483BBvrNRH2USTQjaaP94dt5Vmq1g3,126
striped-ginger-boa,-78.92239346,43.91911741,9027.077648,40,0,0.399993896,11ayV3rdzfKgaDrDaWmroZMfk6e1WxzKxfT7QBrMzYd3whQ7hs2,126
tart-cinnabar-horse,-78.69960409,43.9379369,9058.667031,90,0,1,112Ar3siKcd7G6rMCCTfTuzhw8dzThszqyeVQBqd97sTafm4Dz9A,138
bent-vinyl-gibbon,-78.92171836,43.90988192,9059.40594,40,5,0.406997681,11jbedTWBxJt1jSCYKS2q7Nag8kEjko4NLs8cCLKxWzmS1P7ECd,112
urban-magenta-rook,-78.92160188,43.90910238,9062.734789,58,12,0.406997681,11vEFqHWMLgg5TFWn3hx1HWL1MFjj9sBSeHZVD4cPiYf6JX3gxM,120
innocent-seaweed-scallop,-78.69896754,43.93646038,9076.922167,80,5,1,11w2K4Wqubp6YmXQPyVkVEF3QmZkEPz9kN9AL4LNjddZnY9Nu5p,138
tangy-aquamarine-cow,-78.90894969,43.88162064,9087.03236,40,3,0.666671753,1128atTU8i5Ss3WSBAzNYtZaM5kMWcNtcCA1ttxErGf7QFEQsWwm,103
droll-plastic-dove,-78.90789706,43.8802304,9089.784365,58,6,0.666671753,11v3NyVdJqvjJY6d61ukEGt6vEk8fArSvSroYzphEavkRneW5vf,103
massive-frost-condor,-78.70143485,43.89760542,9111.903807,58,0,1,112V7jmnG1CduuCJorwBu3jo7WwmRjEq5eHk1AuJere3v3MPGXPa,95
winning-iris-dove,-78.90490893,43.87593575,9137.421343,10,0,1,112FAwG4oi7g3B38RMWGkUjPfwMpcPmdgQYonRsu52aq8F4TUsk5,103
jovial-brick-sparrow,-78.90962046,43.96111968,9138.424727,40,5,1,112CZF1huHYQRi1sBEvAYiA8B2Svob76kG15mc1LarjWKybhkRJ5,174
festive-porcelain-pig,-78.69641079,43.92689939,9146.310816,100,14,0.961532593,112mAfqUzMmFQHeneDJJWkb5cYckgcWdwtt3F5B8nus5gCQMpeMN,122
special-cherry-seal,-78.91366899,43.88680961,9164.495117,40,1,0.952377319,112JsFvk6zY97Hga6hTvDtAXCRTV3g4Yj2PSChyf9QQMrkeajTpT,115
macho-cedar-python,-78.9094844,43.88079693,9169.228553,58,5,0.666671753,112aCXDA414QXTKGtkhE5es9XhKFMCdm8vfFbxADBrPjQWpqZ8Ms,103
droll-peach-canary,-78.92262645,43.90683873,9184.891406,40,3,0.718643188,11qMYrTxk9QoBnUwFsmb2Vz9gYc6xvQspPQEN24mv2CRaxvtYua,112
exotic-foggy-copperhead,-78.91109003,43.88243061,9195.135876,50,8,1,112k2RXVuKASDsFwcRpqQGhy92v8HZPC2DRHww8gmueMw36TDTkB,103
short-sable-ram,-78.69827296,43.90270697,9211.62917,58,9,1,112KCaqTu9pDmkWWbzW6SFPUWDMSyFf7ypNEeZk1z7ra3uEyA7DZ,113
curly-strawberry-caribou,-78.92471314,43.91828391,9216.267009,12,0,0.800003052,11hSomsSz4Ja6b9p3cMXxwPdKCfAMNiJeuWnW6XSGBAHzXGBBnX,126
puny-tangelo-tardigrade,-78.92202555,43.90187386,9250.614704,40,5,0.813995361,11bF5MpAvvKsP31Mq7JsY8hzXSM9Tw4p1gkzdYSKmiFRCzNYm7W,104
hot-cerulean-pelican,-78.8817064,43.85598219,9263.843787,80,10,1,112Qnr6Pzfb8L5E1PFHT2i8F3XrnNsh4XJmpssRKbAnVP8U9k4xj,79
dandy-fern-dalmatian,-78.92350006,43.9057666,9275.477463,40,5,0.813995361,11e9B28iv72vHpKJ21rgTfS383cxqvCu99ELNLj4G3GxGMoh8jZ,112
fantastic-brunette-sparrow,-78.92570348,43.91799123,9297.000819,12,0,0.27406311,11ZPRtSdh3LkE9nUTYrEoXMUvoQ7hCGZAraS4j93wxkjRKEvmDG,126
raspy-merlot-crocodile,-78.9189874,43.89285764,9304.830119,35,8,0.761901855,11DecnGLfKZhsvzDedXEkMUesp8k5UrsMwdc9abPpduHQEq1FHq,115
funny-taupe-donkey,-78.69410908,43.91844719,9315.884707,42,15,1,112TgDrkVQpAZsFL2v555Vn9nKTa4EfyEW4rxPuijCfbqamvXr44,115
future-vanilla-wombat,-78.91982631,43.89375643,9334.983759,58,8,0.761901855,113Bhf3cKeKAEnAxnrnw7Uw7opUaF31FciQS4exzGZazX2zoovC,118
expert-walnut-grasshopper,-78.69405756,43.92818023,9345.350056,40,2,1,112u2zneNgCaepT2gFAmsv4hDsDQUnhB7CrV1bT5uT3NPcNbY8L3,122
interesting-opal-monkey,-78.91846887,43.8906435,9352.542012,80,9,0.761901855,11bethNTUgdZTF9NsJAmGtmZ1Vw7SXdRQoWNJS9VgZGz4GwrDSH,115
interesting-opal-monkey,-78.91846887,43.8906435,9352.542012,80,9,0.761901855,11bethNTUgdZTF9NsJAmGtmZ1Vw7SXdRQoWNJS9VgZGz4GwrDSH,115
skinny-quartz-lynx,-78.6936334,43.92719596,9371.080027,58,2,1,116geWpPb5rZNvpPnF8c5aCxcxvh5tfiMvA5uR5hJsyAgk9yGSA,122
polished-ruby-eel,-78.91833407,43.88879687,9419.297234,12,0,,118Lr5Bw29g5veTDup9AqgkymiRi1QZMmyc6ojnXabyQx9o8hzR,115
mythical-white-wolf,-78.6931912,43.93031866,9436.825594,30,4,0.5,11xsFXBtE3UXFwjymH2r86NM7Lc4HQXTW2BVBiDELmTU1mNpUGs,130
fit-shamrock-kitten,-78.69312051,43.93015462,9440.563809,80,9,1,112jQDV6evFfRg4EheRNGuw3EUbbWA9hLnYZ3bUPgzLFN9N73Q5n,130
cheery-pistachio-penguin,-78.90927418,43.96699639,9448.120277,40,8,1,11kicKYwfH348re4ChTnxRFJNMgC2SGfhXeR1unYk1jY3Su9Bw3,184
cold-arctic-wasp,-78.91630024,43.95796289,9454.94681,80,6,0.5,11bKy6U5LToQQRwWnKRPGTKHqd3U9MREHHxo8kYVrUaXDhte6S9,169
suave-blue-blackbird,-78.92053845,43.95075186,9457.245381,80,6,1,11kewRi8dWbrUcWw1C8X5ES9qFfhepqDKaQzHnrDmEhXwDkGs4w,163
electric-lipstick-finch,-78.92786448,43.91986875,9464.507057,12,0,0.571426392,11UxVRcNPuKBn8NcqYn9PkiqvJpxh6ZqsLPGrCr124MaM48r5HT,126
sticky-yellow-tortoise,-78.92106497,43.89198466,9494.86571,20,2,0.380950928,116McxSSrXBvszWtjdESi6D8yS95FS3tMiMPLAN9HfPTfSgJL2x,115
long-hazelnut-chipmunk,-78.92168954,43.89239192,9526.63814,80,8,0.380950928,11LjTUKPu8HNPKZWBmK5tkg4Aue3QdwqRz8w26iXTFq89ChtzvR,115
clever-honey-anteater,-78.69379651,43.90424081,9526.932189,40,0,,11tZgNTU4wH8xGK4tFs4eNFbnkWxaJxeyUukkt9dk7XL6nvotJk,95
boxy-violet-dachshund,-78.91920743,43.88772498,9530.180807,58,6,0.761901855,112CSCbx83tDGF2L595NUCsngbYTupLUw7LZRqhuTH5i98zTDezX,115
zany-frost-dinosaur,-78.91631569,43.88314245,9532.35883,23,0,0.761901855,11rrhr7GUuB88Y4zC6z5ox4XATjaYCwgxzZN3o76h375xGram9o,94
keen-denim-wasp,-78.69140832,43.92773709,9553.619861,100,10,1,11JKQCPbZxThmNqerThDcEiHnLdT9adMwQhSMK5MjrmNJQxJG1h,122
shallow-chrome-rooster,-78.9178454,43.95791375,9564.718382,12,0,0.5,112tfsDsveBVhraSNUEzQ76GtJaGDJj8VbfBZHVogGvfBZnD9zXM,169
dizzy-orchid-leopard,-78.92434154,43.89693496,9572.406458,58,1,1,11uAjqart9up4g8G2pYny5oZEPnNgESCdhc13czKp4sEJHm9hEG,104
unique-yellow-crane,-78.92934778,43.92224265,9582.719971,80,15,0.266662598,11QuaxgJu72oJZaaJgHRM36XmWE8tGUjbunmRG6jVNBAaa6hB3v,142
docile-lace-dinosaur,-78.92443946,43.89664706,9589.056999,12,0,,112suKMwDXMDS9KdubyDnxHrr6R5EUNK9tUT8gkvdhSJwydJUxfc,104
soft-neon-fox,-78.92948313,43.9240899,9597.905771,40,5,0.266662598,11b57neYZKmE4FnpJjsLNVJKrtx9H7poKvs4dUnkLw4shC7Rg1Z,142
wild-sapphire-loris,-78.92950954,43.92363803,9598.564963,12,0,0.266662598,112UKjeUs23TS9SWHkdGHgVjDt1xDqBXcMBPiZ1s4krzrRuYQLMd,142
basic-misty-squid,-78.91713597,43.88297399,9599.727396,58,0,0.761901855,11YDEYYGSEgFCFfuDxdNdmRKY43TLT4o5zdqoNrYUkmxqQe5VAJ,94
atomic-basil-nuthatch,-78.6923366,43.90551839,9614.907448,100,10,1,11y3fix6iwwxUV9JpPu4kHCRoKTNgK9NWtbtkGdP5EJXdh1d4ry,95
cool-mandarin-mantaray,-78.91821544,43.88391249,9632.056233,40,6,0.761901855,11R15jh1J7uD1jU6hacT4BUCLWU945kJqWabUipuovPtUg9VX1E,94
polite-quartz-wolf,-78.92899913,43.91017196,9634.586393,40,8,1,112hGhtoshPtH3PRhpwfxMsbZpeGvHbSXHHLWbqHqTSL7iRfhk1o,112
merry-violet-caribou,-78.92924006,43.91021174,9653.211064,40,23,,112FSwPf3tqkYQPViqq2vEPorucQkUaprcDt3xMjxVDwWh9BATTV,112
sparkly-topaz-weasel,-78.69068062,43.93279104,9669.587751,40,1,1,1124RnxNcigBhbKPKQTSFfBF7AR4gTwKojpmjkG4TqtQc9F4HWzA,130
tiny-currant-walrus,-78.69160132,43.90433006,9697.862415,40,4,1,11w7URMTwm1Vnz9n2EpWHreMJGrhKuMaM11PHaxwaAP4mJwuk1q,95
innocent-basil-ferret,-78.92725052,43.8984797,9750.646129,12,0,0.014984131,11NSHXEGFfeLczXtmvYCeuYRGCGCQUU3h3xkxqJqBZzhGUPairC,104
polished-cloth-gorilla,-78.91636572,43.96375512,9753.877627,80,10,1,11cwpDsnyggrcKbiWKv1zBaMQyYdsZw9eagt8PiPwNeXVxDBL8E,169
jovial-cinnabar-starfish,-78.93149456,43.91742666,9764.364775,58,18,1,112FtbEggDbhTx4t7rhg7Q9se2dL3EmWxdj5c4TM4ibtx5qRpwEE,125
custom-champagne-griffin,-78.93164873,43.9203414,9767.646222,40,7,0.800003052,11f3a9S7L6F1yt66ZuKXDerjHkZYjoRGweMBM5Q24vgwhF6mFcQ,140
suave-chrome-donkey,-78.93132167,43.9134445,9780.277068,30,8,1,11k5V2cyZh85aR96FTepDnNfGtgbsZ1cGHqmQFERK6q9JQT2mLa,125
hollow-wool-crocodile,-78.93131822,43.90933841,9831.493017,12,0,0.026641846,112NrjSJnWShYEjUpshx1mNt7pj7oPVni5Tu9zejogPyJTKUpdg,116
crazy-saffron-frog,-78.68848405,43.93288027,9845.746934,58,4,1,112qVnhnK2Yq8Ykeo74CNtxgWRDiTT1wzhiPmon16a3aVJN2GryP,130
digital-foggy-armadillo,-78.68799546,43.91255382,9849.949047,12,0,0.333328247,112WJfnzGsz7d2RTBwTdTCwqvzBNr3eDXRrJYYU2pq214CKP6yB3,98
silly-violet-puma,-78.92754112,43.89351056,9931.054189,58,12,0.761901855,112PgQhcVbEDJLSk67pXtTT1k1V6aR6hd53QGVjm6WtTe2LGKgBf,104
cool-teal-sawfish,-78.68702587,43.93157069,9944.190738,40,3,1,1121AB7GPVsxSZg3GV1JDgAoCm8fD2fsmWJhpcFBuNJffFRZ6wgm,113
tame-seafoam-osprey,-78.68614612,43.93264134,10028.55505,58,8,0.705886841,11vwkg4D2C8rfU7uFV4Gsdy8556BKD3qWEzRY7WAuH8RBZLh1zR,113
upbeat-blush-pelican,-78.68585752,43.91173942,10030.07822,40,0,0.333328247,112HMfk7broieBqYS3DDDYfNAwRDkDXNDg8txjRr6ak7tBELEKuC,98
micro-scarlet-porpoise,-78.92483327,43.88576609,10031.42748,58,9,0.761901855,112Zt57QuAG3FLnV1oAV2eNwM9h78Bf1nPoNFdzdvfSPTfX7RFsJ,97
sleepy-charcoal-camel,-78.68553027,43.91305446,10041.74198,30,2,0.666671753,112sVASB5CF29GCWWu9xMy31jepPEZ9gDsxvcdWu1cPwx9WHJeHJ,98
fierce-umber-dalmatian,-78.68543941,43.93100078,10063.81819,40,5,0.75,112qNNwYjwRWqPdbickVkV1huhn6T2Shy2xYZ8tgxjpVe3EeuYhQ,113
prehistoric-lime-walrus,-78.91435719,43.87096181,10075.80754,80,10,1,11278EdspCrubWKC9tk9YrpDFGUYoYqgepvXtDyGLwWcgoANrKLn,95
bald-holographic-penguin,-78.68817923,43.89949627,10083.35265,40,5,1,112WN4jSqPW1yujk9YWiGCkUwDxwKn4W1vrPXzWqjoKG81g5hBVp,87
sticky-tawny-puma,-78.92529628,43.88477845,10109.23737,40,10,0.761901855,11pSHuPTSJiWfjoH6d1eB6zkzWLN2Qy3u3RLfK2qRHza3ficVs1,97
faint-sand-cougar,-78.93605815,43.92122121,10121.14087,12,0,0.800003052,112qNSDd9CziABeg8G8taQjaMpi4F5NAWFFU7m53LgVwTAKZ7smF,140
suave-alabaster-coyote,-78.68446306,43.92977179,10128.25804,58,5,0.882354736,112aktTsvrpaGV6fi7uT9zj6mVt9pXkD1dJMTnJPPgcCTHX8mVcT,113
bubbly-mustard-cod,-78.68543363,43.93617578,10141.63707,40,0,0.029464722,112jJUMNCLXTS3yR6qELnitcGNBHjmcf3Ai24xiSLctBuMPZbuxW,113
creamy-opaque-porpoise,-78.9078042,43.9795356,10172.54602,80,6,1,112C5eU59ckMjZ7fd6N72iXLicCoAcBbwNZ1kVcb9No2797xJDqi,195
narrow-inky-dolphin,-78.6838062,43.90956968,10222.01299,40,0,0.961532593,11ye4wHgCU9yuYBoQttrPQg4QL59Asb2EBrEthxMthWsvxCs6Qz,92
harsh-cobalt-raven,-78.68689218,43.89806342,10222.87894,12,0,,112ijmTsr8EJegjwSag9gB1Fnpqc45PUFJaf2Bpx5oZMgNMDji7k,83
zealous-ginger-orangutan,-78.9374778,43.92191169,10235.32962,58,5,0.800003052,112qx4dhkGoFcMFYzXxZV5YDhNjG8MiLoygFJ5BsK6Vs71tf2rjD,140
uneven-peach-pelican,-78.9271512,43.88493284,10239.1151,28,3,0.761901855,1125PpykYtaX8JwEP5ctKRUMUpZhyP4WUk3vMmGeze5MbyvHkWQR,97
straight-brunette-shetland,-78.92492829,43.88137332,10240.48801,40,0,0.761901855,112A3shDvKzF5Dha8MH48vnCLQPXN4XeBjuEevW91c1LKupwibq3,91
exotic-chiffon-ostrich,-78.93777147,43.92104773,10258.78806,75,6,0.800003052,112efg74jxjDh4RrQSWfXadVkKhwJ7YcHAot8CRiGM163dDDor7B,140
jolly-bone-cat,-78.93423591,43.89963311,10262.62213,40,6,1,1126yo3DYcxrL7i6s5vjskoBmzecFRZ1ponsL6AamFi7Gp4JYY3x,109
straight-lava-turkey,-78.68358138,43.90801008,10263.52678,100,6,1,112Ch7a27k1tZRkVwjTCYppmbkLLRhHHHTxZw8C1Nfkban3ZSWFA,92
tangy-metal-carp,-78.91727229,43.87098772,10269.90041,40,6,1,112v4iLDE4vEJwVYfAnfipcWAmFV8XEd4u4tJK2oGJJfyZXDK4Br,95
cool-green-zebra,-78.93481553,43.89942473,10313.33542,12,0,1,112UfUyNFoK1wemEikP3t4v2KddAtkPJ3GgP1o6w3cihseLRaHyS,109
warm-canvas-canary,-78.6815823,43.92152625,10316.38168,28,20,1,11nFv886JHcxgrWM4xXckeqVkrN5G8w1sH5vBchb3BxBzWUY7Wv,105
colossal-tawny-cat,-78.68200671,43.93392771,10376.67937,24,10,0.25,11pMCNZh4TxCWkajmCryWGWj8cqEH6Wh45WE2ijYeieupvkinD5,113
alert-orchid-osprey,-78.93917637,43.92477715,10378.50565,40,5,0.800003052,1128Km4NupGQqh7uQ2FLAzkSwbkR6wR3dbeLRD3GtfotbnPHUQjB,140
dazzling-corduroy-jay,-78.68193605,43.93376364,10379.86525,28,10,0.25,1126pkpKfrycN5SLnwuo8TbqhxFvwQoeMv4GLeukseuynpgTbViG,113
sparkly-denim-owl,-78.68193605,43.93376364,10379.86525,28,12,0.25,11HSQmrvPxM653kbQo9JjhKE6Xye6mGZVSuCPC1WXei7GiRsLdx,113
little-tawny-cod,-78.68112019,43.92875563,10386.03481,58,6,0.75,112Fij5iSzs951Qos2rFJeADZKkjx4SwXK9HkJHFmD37z2Ycy1bV,105
custom-coconut-huskie,-78.68119675,43.91232907,10395.87176,40,18,1,112VbwWguhHqqCPo2hBq29BTjoA7okZrgxGVyArVpXEGx6HPZJG,98
small-amethyst-bobcat,-78.68072203,43.92990684,10428.77541,70,9,0.75,1129VndnW8cD369PhZmzDT7AVDGbnDMkCurBXRqCtWgcuFLDfqPk,113
raspy-dijon-orangutan,-78.68034308,43.92695105,10434.39161,80,8,1,11i6gLD1Syr147VC3zUPzazdLby4WpTQeJvp8TPKQYqFCc9gKi2,105
faint-mulberry-snail,-78.92837067,43.88209399,10456.79741,80,10,0.761901855,112RX62r4S4o1au3ZpvMZkbAbhaxV7XheFFbRvSY4FozGP23ea7k,91
careful-snowy-toad,-78.94069406,43.92517961,10502.01782,58,9,0.800003052,112vGHX3iJVyd11RJpTvy6oMX15w2aqFAtX9KoqbHThyit4k6Z6D,144
kind-snowy-fish,-78.92813764,43.88053539,10513.30704,66,15,1,112kso1V5gUHYdJSfY2CxoTtCigsaPPcfC8GxjJqC6862gGGuSej,91
interesting-champagne-dalmatian,-78.90432443,43.85562309,10518.4402,23,0,1,112w7RpfCfRna2eiJGWkB3EpZxvXxXrsugqp1F38paY7ZaMjemh6,87
soaring-hemp-dove,-78.93251272,43.88749051,10531.42431,12,0,1,11fhrr2vSZSzBcRzSsxYCwfW78svaVQz7YXSKpXUcDYo8nH1FeW,93
itchy-olive-puppy,-78.94056437,43.91208087,10533.63466,80,8,1,112qisW1reDBia87CfdHRXyJHTS9AMdvc3v9ScVEQ1xSMNDWN5AF,132
eager-lemon-stallion,-78.67886923,43.92716102,10553.93924,12,0,0.480773926,112JgVdvMZc12buxFsbe75vh2E1AuDY8fN4xo7uYtSkeHChj52N2,95
spicy-midnight-goblin,-78.67886923,43.92716102,10553.93924,40,4,0.5,11HQSNfkjQiN5emH9G8qVuKiUgYsCwGhiPBhN45XbW5bqfHyKs4,95
glamorous-grey-snake,-78.93894839,43.9022354,10569.07322,23,110,1,11NVnisFsQqopULmTSAWV5jPB2nUbB1tJ1XQfjZLVhuhdp5FnLr,109
swift-cobalt-pelican,-78.91243628,43.86091652,10615.9173,80,30,1,11G4yE6PFCTxcxQjtP6iBjFJvj9mCjvHdmi9VvonXKMJ5hTVKpB,90
obedient-aqua-mockingbird,-78.93176043,43.88371792,10632.74042,80,5,0.761901855,112rYausmbEqDvUoukcPRLSgrc5XHfXiRhM62c2pZbm6Nq8z7L8i,92
blunt-clear-mustang,-78.92784093,43.87729424,10652.4014,40,60,1,112nz5xTT49M99w2vo5XswLETUfGkW647rq1jaYnt1kSv9ws4vNH,91
tangy-fossilized-barracuda,-78.67704557,43.92396341,10684.62098,80,8,0.961532593,11AVEiBSMPxub42ngFji2Ho3yLErM6FsdCCU1sRhoAmEHG7xHCJ,95
wonderful-red-hare,-78.92701655,43.96764323,10711.03066,80,6,1,112i4z2HtfJr6rkEh7ytzvgKK5DB1NxABbNcWwFwadqiJdfZ83Be,177
witty-neon-shell,-78.93683255,43.89124412,10718.93051,12,0,0.952377319,112VaTvLmaEDHDm3jEAqxuKNTZPgTefx9ga989oAfStFZW7i7QXD,93
blurry-hotpink-python,-78.94220863,43.90611826,10749.39891,40,0,1,1122ixE9Kij96Yh1aXNF5rxiqm688xZAFncM7Lm6smRZgwLcTxKF,130
round-violet-chimpanzee,-78.94427132,43.92364072,10783.7081,58,9,1,11XCNf6Mionz2oCgCGWVP3RiwmgEYcbKg66Lif5JhahymBFodzb,144
teeny-burlap-corgi,-78.94418592,43.91115787,10833.42999,80,7,1,112DPJDFUAo2yFJt6AXBv7WDWp8AV5YbcXfu2fZcqDbEwv9sXmLH,130
quick-hazelnut-crow,-78.67578812,43.91066244,10847.10645,58,1,1,112KNMGJG842JKSDGc5LVjTiqeQVd4w9t7igcD5pmHwBoFfdVXQQ,90
restless-green-kookaburra,-78.93875927,43.89156216,10855.28853,12,4,0.952377319,11UbZVy4bCxbeMeBCwd4zrjNW8tzBK838vktBQBXQokiz9rBp6G,93
helpful-vinyl-lizard,-78.9449397,43.91493144,10857.9973,80,4,1,11EMSE84Pv7uJyskURZ4h7q53QBkKAwDWmDnq2gggsCW56Wgrru,132
cool-clay-tadpole,-78.9249647,43.86967508,10869.9838,40,21,1,11Cy9zpVeE6Q8pDEkdESDe52KTA7oVrSpJUpTyG5QcvDDdyeNuF,87
short-carrot-gorilla,-78.67474409,43.91809812,10871.62703,12,0,0.961532593,112CkArnb5Pba6fjKF5pmDwRNMTdvQYpj18M5NuZeUcY9JZpf6Sh,90
innocent-pastel-otter,-78.9336041,43.8812862,10876.88915,58,7,1,11LgPXgzxAzCcLo53dbbKdXKX6KQtukKADrsiE8UjZcr75ExnAw,92
furry-bone-gerbil,-78.67487608,43.91477152,10879.66824,12,0,1,112jvbZ9cmgdjXnBB4HjbWgUHTWwLKfeCkZ8G83odCNyMZvMhToH,90
harsh-sage-lobster,-78.93478156,43.95979598,10891.0573,40,0,1,11Ut9JDJdtZ6LP8DVTb9EmLeaDjsL1bxUqKUaJaYY7NH1AtzHN1,172
colossal-peanut-bobcat,-78.67453446,43.92643528,10896.94815,40,10,1,113eB4LiCxRJ8S4PEi3PRwhr7UKoCeYP91hXXKBmDNyjVMFWEJq,95
fluffy-lemonade-moose,-78.94602049,43.91586998,10938.30061,80,8,1,119KfXaV44teRXXGoJcTzoo3wN1kGYuecn3typbkJ1rNZMRYGbj,132
decent-raisin-dragonfly,-78.69601382,43.97525035,10942.19418,80,10,1,112vJh2pWaE7wDZeWcAw59qYP6EGqRDYwm4DWgMm8kx3b28oGaVJ,167
custom-dijon-sealion,-78.94444387,43.90253406,10995.54408,12,0,,11AwW7Csb5MqrrnRVKySxThPZUy5wcigL7to7BnEtqs3SedtWbR,130
merry-pickle-hedgehog,-78.93581633,43.88225951,10996.17104,40,2,0.761901855,1127rTCzDYSoKABs4F4yAkjw3e6nb9pYMh7eNdZ2aBH3kG1sbThY,92
polite-lace-blackbird,-78.94708934,43.91422164,11035.68414,40,0,1,11XpFz6KAhXtqpFHwMDU48XW5CSoQcg7PiNPH3JMHF7M3CDhoyd,132
obedient-walnut-goblin,-78.67467827,43.903932,11042.11498,58,10,1,112Sqh7cu8CpJs8SUBVcSKbhpgo9s2hMpQYUg3mdkxWQjWeyZahu,90
precise-lavender-mantaray,-78.92924487,43.87129419,11072.15508,30,4,1,112KavyQUTw5cvLmjmhssTXNXv83DgrRrfmzXSZhCpuBrA6VEnQv,87
nutty-pebble-mouse,-78.94041463,43.88818697,11100.86386,40,6,1,112YvfgrFN5FTbFNwhZ2KKuqgF5wzkVriJjise5S2RCfa77QxvWE,95
modern-cloud-yeti,-78.94275585,43.8925258,11130.25317,80,12,0.952377319,112sjNhvQnQvasPdaNFkm3jYNavgvoFwaZBJHucsk2eKpzSTafBi,95
mini-cream-sawfish,-78.93721248,43.96126185,11134.64748,12,0,0.666671753,112fn28CHwGrKkvFtFv3yuXdjfALXduvy41oWfPbu7Mrtprjjhjh,172
joyous-honey-mammoth,-78.94703426,43.90539397,11144.91083,80,15,0.380950928,11YkBaYjY7uoWivdrLeQMcT42xpmXwEG1vSGwV9Es77jzVDuMAr,130
digital-tawny-rattlesnake,-78.94419375,43.89428328,11186.84561,80,8,1,112GytXTkKsFEzKdBzz7TtrUP8oUe2ARZZbnzKzkNLm3bJNGkxYv,114
best-walnut-bee,-78.94794551,43.90645651,11199.10949,26,4,0.380950928,11289QU1EyGQxQnAzz6RM6yQkjToPQsnPw4ZHz3njVNFuZceU6kx,130
droll-mahogany-worm,-78.94396011,43.89272452,11216.6695,40,0,1,112t9Ts8mGQysZcQAXJh4Ao5sKsjQuUrHfHoW3gyWM5rmpwQcdT5,95
ancient-aegean-toad,-78.94641163,43.89936198,11222.26864,40,8,0.285720825,11wrRzN1UPKcZXfk6Cr3WKnb5UqkZqrwnewktYVk1vu98nj6Fi7,114
wobbly-dijon-starling,-78.94648319,43.89952581,11223.92896,40,5,0.168411255,112SZxv7iAnDPFKajRe6wfbUC2dFqdVVPVhcytHRNexvVDjCrzyq,114
pet-cinnamon-spider,-78.94226972,43.88834113,11235.97845,28,0,1,11URG2pEzu738TgiJuUtxkeU2NgVgF2cU7d2RYyGJoEEgNYy8ju,95
sparkly-teal-badger,-78.94665252,43.89940172,11240.19823,12,0,0.571426392,11tuBFpeoFgL5WXyCKyCWdZf87VjDNdJViECzbETnANnxXtiKYH,114
polite-mocha-fox,-78.95018687,43.9223353,11256.34373,40,5,1,112Y9JZ55vzGtWtc8XZrKyQZdMNCQNftLT61JQ3vQaFMwmv4MRCR,142
acrobatic-gunmetal-raccoon,-78.93739352,43.96372584,11259.66485,80,7,1,112Q9bEueQx4cZ4ezYqyeAE2wEvwukipD6TmHCtrDhoT914rqipP,172
mean-hazelnut-iguana,-78.93729554,43.96401395,11265.95205,23,0,1,11cja7QgLpTnRXYntchLGWh81XqVgBqkXoaiNCcE3pvf8FXxPvU,172
handsome-rose-falcon,-78.93792681,43.87941586,11279.02007,80,15,1,11WEgeCQcPkixcWaZ1f5D2DbfiTfpJdekzE3LsFhDhWkdUyTagP,92
muscular-quartz-grasshopper,-78.67026394,43.91080263,11286.64001,58,7,1,11thPySUcW9BZVALmQKt1rryAGvgAZb9i1aBdgsLz5ayZn1Bazp,90
dry-fern-mockingbird,-78.95093267,43.91227065,11360.85389,28,0,1,112PQZfCjZowAYEmmiAeHTv4HdW8P8nfhFUcaH9Aiz5H6StKQerA,131
fierce-lace-deer,-78.94281116,43.8859983,11364.47428,40,5,0.5,11WjUK2pZS73zgcpicUjm412gzppWSA9tPyZvjmLJiP6VRJVnJG,95
early-mauve-rhino,-78.95021166,43.9065262,11378.05601,28,0,0.380950928,11LJpCpCgaKtBCLmwHDsrGCtHUTDzvawSzJUp4cH6fVDcmjMd9U,127
basic-burgundy-moth,-78.9438722,43.88586938,11449.44356,40,21,0.5,112iDK3MxzBs8ttegkuY6ZBJV1W1xPRcJZVTZXi23vqGrTu552iZ,95
helpful-porcelain-starling,-78.94550232,43.95410992,11471.74848,23,0,1,11GEWR6EXmCCRnkjzKQC33BLkdAaqfXzJgEvZXHRgjesv3sPJtm,163
steep-mustard-ant,-78.95066214,43.90295166,11477.99888,40,2,0.571426392,11hvAu1L1JkDrSVprDEHWwKS1V9mLDgv9GYXr5ZKuHbo4FAu2KP,127
soft-hotpink-jaguar,-78.94459482,43.95715478,11515.09675,70,7,0.800003052,112euXeoaLnma4jGL8gZEht4iUzkjem9sjk9TUwC74LfXBaH87jb,174
attractive-aqua-sidewinder,-78.95339317,43.91738988,11521.86296,58,4,0.800003052,112fptW35Ac3pKHYs7sj9aMiTHvze3vm5o7HTaGUHnLSDUDtfswH,131
proud-mahogany-tadpole,-78.95247781,43.90659584,11557.10443,40,8,0.571426392,112Si3UmMcjoXCHczdE9qNiQRUhPHi1bbbCyQe2Nh1dYa8eqFJ6T,127
flaky-ivory-marmot,-78.95385588,43.91640181,11563.72831,58,3,0.800003052,112C24vK4uehUquXGcLioxGqv7cr2wmhTLhS6uNsatAsnovftkEh,131
spicy-midnight-rhino,-78.94183183,43.87914848,11577.54589,40,10,1,1128jzqeD34B2kLrqr1gQcQR6PvDCp9NDDUqQTtAe6HcwGbr65vf,102
immense-pistachio-pike,-78.94250165,43.88017103,11581.41339,12,0,1,11VHMek7HQqoyAUFeP9UPyUR9DJyvM6yme5hyaTjMz2njpGyXYj,102
mysterious-khaki-parakeet,-78.95380497,43.91167995,11596.58477,12,0,,112WDYnTXpjV3U2jyL17kHcEpWfbx7oF8ULtLozEhCPpcPGmWPx8,131
keen-vanilla-gorilla,-78.95030613,43.89650783,11599.26264,23,7,1,11bsbcUiXcPc2xR2nrULeuAmF2HXDKT2QQW5346Ld65Zag8GXCs,106
wide-coffee-ferret,-78.95161354,43.90052407,11604.04336,23,5,0.571426392,115Hff5Kz5V7tdzZk42MGFKxGBpjbDYkiLUo1jonPLJMeNkWFP8,106
immense-berry-rabbit,-78.67234739,43.88969284,11604.68192,28,2,1,11VPSefQejBvz2gWt1MWKRyusjCWwaRLMggCfxLUr5zzyjCfGZn,77
curly-jetblack-rook,-78.9429037,43.96250459,11608.75376,58,5,0.800003052,11B7RvrdXzz8fkBXWVh2rbVQYBdBWmp3RfNX2yBFQq5LHgbm5iW,174
savory-ocean-oyster,-78.95362324,43.90921732,11610.70413,40,5,0.800003052,11knKnjFVoVPVfxv6xCrwtrSkcYRTR5WqLwoWZLrT5cWVtPfkch,127
puny-pecan-boa,-78.94858019,43.95142297,11617.00924,58,5,1,11jdahYtTuwuARAFRnoPP3zNtWsyKZDcaMAuJ2q9EurBbbzyczi,163
late-lavender-reindeer,-78.9350638,43.8687595,11618.06521,40,0,1,112vpDH4aNVzVXDCZ1jnRPPEoaD5rXNZorArcBrKPuh82qACyvhK,94
mean-azure-tiger,-78.94425145,43.88213183,11627.29976,40,2,1,112QQXD4j9wbXj7Sxkby5E21iJVKBSC6wiyLffJChar7vZ74Xev,102
dapper-sky-sheep,-78.95238164,43.90125886,11648.57538,40,6,0.571426392,115MHGyUEKEnymh126DQUtYh1P9tF2K4FWxLPQmnKmgJ7oZxJEo,106
deep-onyx-monkey,-78.93894577,43.87304823,11661.92134,40,43,1,112vLNYhUTbKFycQZAVvaUebeiCtmyJQhWNUGP6FmAykuJ8HDRJw,94
itchy-vermilion-porcupine,-78.93898087,43.96992104,11677.18948,80,7,1,11eduhiGB7rY6XD5h8mUtb9M7Vobhtrk6HTk22JYtJWcRXxqrNS,181
joyous-lime-mole,-78.94254244,43.87668182,11743.0014,12,0,,112RB4wcvR3seWVBTnLYTyJDnsM8yku28YsBewzqQCLeTfMDHjyA,102
stale-clay-crocodile,-78.946607,43.88343255,11750.3916,12,0,1,112rbghvAY1zxbuQyCRVbd4AfTvtMFfxpFcMBihkHaV8mQ2norhR,102
strong-topaz-swallow,-78.95634989,43.9195499,11752.56249,40,6,0.800003052,112BqaDJ5uVeP7dgj5hgUw3ekYZHuRic3v2wgXK3zwsQKPUoZjeh,131
flaky-rusty-scorpion,-78.94439639,43.9633592,11756.33182,30,7,0.444442749,112e1oMm2HJqvZYaYZDVLmooLBrdnKBpScUbmasgYvWoiU5RrpXA,174
radiant-sable-penguin,-78.95701384,43.92209224,11804.38762,80,5,0.800003052,119sdXojE9H8B8cgGs8XgmJ2WRvth6eZZ9xA9kYm2GowhDP3Rk5,142
polite-syrup-capybara,-78.94441546,43.96442727,11805.33278,40,7,0.800003052,11a9BJ6YuJoCAgvr9f4nXdimnaXVbFF4aX5RAYcp78evYycJs5E,174
massive-blush-rat,-78.95594182,43.90838329,11806.6818,40,4,0.800003052,1127fgXFBX8UzpzYFtEqP82sbRp8nzZLKEoSgnbNpJNmg7b5sA6j,127
young-flint-shetland,-78.94585093,43.9620777,11808.29727,58,7,0.800003052,112vb4WSUfKz5F4UTzVUeUgW9MaS628gm8G7eQLDJfZVzykx8Amo,174
mini-gauze-vulture,-78.95624755,43.91010611,11809.21883,58,3,1,112NKCjDMJ9Ju92DcS4mk8dp1F3u4rTG1cLFdHuGd77n1UqMZn1z,127
quaint-mahogany-kitten,-78.95112826,43.89071478,11832.44184,80,50,1,112YopQUDqxMisNEhpZFvmuzYJPX6EbBuTJrB7fhXDkM7JBXBM5u,99
clean-green-yak,-78.95718524,43.91071681,11877.15623,58,3,1,118sH6QiqyMgVjL5L7ccvv2JNb4nyiwVE6EbcnrsD7Bk3vuzqxU,127
cuddly-pear-mantis,-78.93204403,43.86081366,11885.3343,100,15,1,112mXZdqAa6diW4jELfMek7dqvqHeEQNv7kBZLgQEm8vNGj7rkYn,83
genuine-olive-worm,-78.95207367,43.95275932,11928.43658,40,6,1,112KpSmcLGnLgb4RExUoRja1Z9exy4xDbidSRwoifBNwngVFXr9f,159
special-fuzzy-millipede,-78.94476902,43.87461743,12002.88292,100,11,1,112fs9KcbmMZS4pQAd4r1FHG3xejvBKpKoyX9eShDobAycU6rAFc,92
noisy-fern-sidewinder,-78.95961953,43.92191347,12013.53607,12,0,0.800003052,11FUaG8euoCmMjZ7adDHxcjAgin7v9TbDuk38iNwgfEe5z4P3R2,138
stable-jade-opossum,-78.94850439,43.96251507,12023.6844,80,7,0.800003052,112GkxR6eqrDkJey3E1tnMUGgP28HmagedHDyfoSdeuooYpd2PLn,174
bald-gingerbread-armadillo,-78.95855347,43.90668534,12039.0655,120,6,1,11pqZQzGv5R3bk2RffghaGUzT7AH9YLNboWZnDaMyWqhkgunSK5,113
rough-sapphire-troll,-78.95435703,43.89094328,12073.99237,40,5,1,112XtZbmhdtKKX9nx69pJxV9er3mqChUKG5FYQm8YCAMcV8WECRB,99
active-sepia-kookaburra,-78.95597709,43.89516279,12077.44337,40,5,1,11VrEbrmeUaFTJgyqFzTVwveqfFaRCYympmMZTXpn6ov3KEBdPv,106
short-infrared-flamingo,-78.94939763,43.96251017,12089.81409,23,3,0.714279175,112UcyMUMLMBfJuvHARRvuPp3pTk1yHNsU9co2NoehMqUJaYmjGw,170
strong-ceramic-millipede,-78.95776675,43.89925834,12116.58794,120,10,1,11FRddTifMF9nt5neeU7SCh3Av8z94E5XmxdnuR6Bx4Xe41MaP2,101
furry-pine-canary,-78.96030498,43.90864642,12151.17474,40,5,1,11YH9Y73TrMn1KAswSurS6SgDHwa6F6TcV9upAqpW4ydw5ZWZFo,113
rhythmic-lipstick-kestrel,-78.95829384,43.94344153,12156.54417,12,0,1,11Yygqq31AWPLm8yvd7Z66xt145zM4EMeU2W1Qnue5mHJvGff9h,163
keen-coconut-hare,-78.93472532,43.85928089,12159.4501,12,0,1,112JbeFCoTzE2dND69qLp4GWHcDb4VxesQRuNrWfyL2q4QH7T3cN,83
rich-crepe-cyborg,-78.96124884,43.91336314,12176.93092,12,0,1,11wGi5eRmVuTBETBmSe28DctP5jhAs6MhHMeshuFg3j3qefYGqB,126
passive-peach-canary,-78.94901813,43.96625085,12225.18415,40,0,1,11mg8SJME5eEmiAK9JjZVchnVk1veJY1yjhyCNVYX9iwJxrd28J,181
skinny-lava-seahorse,-78.96182058,43.93155201,12242.36037,80,9,1,112ZQZHr94sA7GGWiTDytQDjSwuDr7AqueHYz5DgCFejrpHeXKtJ,150
elegant-cider-gibbon,-78.96090457,43.90388026,12271.74389,80,5,1,118RXnzXf9XP4iovvVBporCZfJdUe2x816EZMUJs5YujyNGYwKo,113
round-marigold-panda,-78.95185413,43.87958629,12299.81904,40,17,0.5,117eQBMzvrJLUd6qfVqTqxUHSnro9Lyjdkw4Zad8QGn3vcpR2pv,95
itchy-coconut-deer,-78.95336351,43.88150722,12333.97638,40,0,0.5,11iXZZXHrFkMYFF99DgEkb1qU3X7G6vpa92kAn9YmJR78k4Kcw7,95
proud-hickory-manatee,-78.9385046,43.85975305,12381.79212,23,7,1,11cChfNEypnedQBL8Athpc8pjF77FnjjvM7tYXNJobJ3ZjM8Gre,83
shiny-burgundy-oyster,-78.95121558,43.96615659,12382.19371,12,0,0.27406311,11Vd6vZFDziuMinJimcBed4S1LhxGoGY2cBUcmSDRVUwYUeFXoo,181
handsome-gauze-vulture,-78.95474464,43.95989248,12384.67234,40,2,0.833328247,11ZRCgzMRyzNyMe6X1zdRutGA98PPk9sx5caNLrqqtwGLP6yqdV,170
dancing-blood-owl,-78.95642063,43.95758264,12425.55085,40,4,1,112Mogp7yY2gBvkbJhFczEerVtcL3um1dQFRv16diWSbd5sLJU9u,170
short-flint-locust,-78.94918832,43.87245895,12427.0525,40,38,1,112we3E1jBMgGrZjLwr3VxUJXFkesja8JUw2U4q6XNHrmy5neghp,84
glorious-wintergreen-armadillo,-78.96537805,43.92331849,12477.70477,12,0,1,112nZ7DMYUHSiKM1sfWcJuBcwm598vLbw6Hc6rhq6BpmE79Pxo7M,138
formal-cream-rook,-78.94756969,43.86824034,12524.1756,40,1,1,11cgU57TrNHe8qH8jBG3sGpv7hPUtKp94hYTu3Sis8Xs8t4UaMR,92
clever-beige-scorpion,-78.95309316,43.96737876,12574.90119,50,5,1,1122WE8WhKy4XZRbDU6xEGsYtHqDywBzY1UjMCc3hXXYH4W7PA2e,181
flaky-licorice-goldfish,-78.96100386,43.8867191,12721.75492,40,23,0.5,112mL9THc9dBVxg6GYJ1L7XYhWXdFd9ygJsfw65CFybgUptcbnMo,97
careful-iris-turkey,-78.96339907,43.89015399,12796.58588,40,4,1,11bLCtnM63KFWnRuKq5rMYr6EVhYG4QTRTrhXoJJUYc4FVCiuUf,97
soaring-cinnabar-dolphin,-78.95681416,43.87508481,12861.58744,23,2,1,118fCi9BeYKSNqUkDLrQB2C7vG7WuboZKnxqVnsxyFGRLsEn5Ba,84
magic-wintergreen-stork,-78.96717496,43.8977687,12890.33281,80,5,1,112sW1j6VLfcqDwrh8CxzzdHW51cMPqrrSJKU1KL1sBoBTZCDDDS,101
immense-alabaster-peacock,-78.96198044,43.88384015,12896.47053,40,18,0.5,112bXAukh8djpmqguMgcWvEg5HztpaCKQPDhCpFmN7TugoyVKCw5,89
chilly-cloth-hornet,-78.97052984,43.91413209,12914.89455,80,5,1,11zKa6b8M9QS4KkWWFEvAM4sMqiBq8WiLfVRbGSkMNkhRHF1jY9,125
fluffy-satin-canary,-78.95529627,43.97139294,12922.08124,80,7,0.833328247,11Aok9yiDG8E2PXe1xuk3CAW1MHBmf89TqgYHUJQcvXN2c93jGF,181
oblong-blood-sidewinder,-78.94386642,43.8566872,12929.40451,80,20,1,116789EfP4z5ZC7JHMuTM9wAJ1JV6ajXwyrWcosPTDBvDbMzQpD,84
unique-raisin-kookaburra,-78.97203485,43.91757281,13017.44818,80,7,1,11XfEw1k7PLmGYENjdpzHMsVA62KCAKcnWYLznHgNVUfXy19TQP,125
upbeat-aegean-crow,-78.97156468,43.90882935,13047.72552,90,6,1,11G2Qf2Y695hVphFKNwcCntrBw4XtVLV7qfhbQS99TMhZXrxaZe,112
shambolic-raspberry-bat,-78.65208099,43.8934481,13060.23559,80,9,1,112H6LdsxPzDJDugn9mzX18pKzs8FBMXSeQcghHHVLr23uLjobZt,100
narrow-obsidian-skunk,-78.97172059,43.90611856,13095.81905,58,10,1,11PY56K6vyzv6HBtgMtP19zaXMUksxJVy83zFZTXrK8Rr2F636A,112
strong-tortilla-spider,-78.97035229,43.89890027,13115.81956,40,21,1,1127Q8Mi9e5e1s2srDG5u4bnajC1Nh4cSxfubmxJTwGNMrnnao2M,101
shallow-umber-sloth,-78.97353284,43.91690727,13140.30266,12,0,1,112ufNN8kXTmhg4ZXsFi41A17HKc72oKbioZYwES1ESppzKKMGJ8,125
digital-navy-shark,-78.96459046,43.88214252,13156.42912,58,10,1,1151iENQVERoCTZFyJyCtyuBzsSB4iKMTpoognYDVBrCjJ4w4Jz,89
clean-slate-mantis,-78.64649942,43.93087196,13176.00075,40,0,0.961532593,11ktmTV3ggUcDfnXYp4BS77wsowpJuyoaDok9nrP8QYGbVikAbQ,107
elegant-peanut-armadillo,-78.94647558,43.85499047,13208.63892,40,20,1,112ReKX3KzLPTvpNV7MvnkRNvfVuWDwc9p5YgZZGvZ256FXoeWeJ,84
dazzling-laurel-nuthatch,-78.94853674,43.85715418,13215.10147,40,6,1,112eNqDJT74hW7S1NByoTcJVrB55nxjTFn7ZweNwCGVRLSPNK8qc,84
immense-vinyl-crocodile,-78.95766118,43.8688414,13215.46083,58,7,1,112d7ZBj6v19ercCxgnoqVDKFsgh44eM5qUetrGpxwtbcH2sXJVx,83
curly-banana-owl,-78.64823314,43.89904274,13230.05557,30,9,1,11DC9aiPMc5y1iu9Jf1ZxL9pBmakVGsiNNY7qxKebMqXtNdSjd4,100
custom-navy-okapi,-78.97465262,43.91435499,13243.92333,80,6,0.5,1122WT6eHqACF7SN7WfCzKzTEmfBKLE53zzbc7oLHAn9BPK1xygq,125
tiny-arctic-tadpole,-78.96063435,43.87206727,13278.39389,100,60,1,11t1zSFNWGYsiPYvfRn57dx78cpWv9ek8EwowQNchtBpK5nskZr,83
docile-umber-aphid,-78.9673274,43.95846637,13286.98464,80,9,0.833328247,112tfmH392W3heFUhL7esFCoC2TW4d5fnLqP3FQFAwBPL2obXACK,174
unique-stone-raven,-78.9753756,43.91447405,13301.11971,40,5,0.5,11ZAwoLQUjabxUUaLTjd85CaqDaz8cutTSdgUdQVQAY6pZDHHry,125
breezy-raspberry-yak,-78.97572784,43.91681261,13316.87364,40,7,0.800003052,112vcf41MVBaG5oPchbgNe1PFcqNdi2BNXbF51ic5dXxoyxnyfrw,117
sleepy-silver-fox,-78.97590947,43.91364976,13349.53081,120,6,1,11RsPBE8pVBLWDhWD3hSyYJ5iAUfSacBrrUApvbMX8GfCVDYaC1,117
sunny-boysenberry-turtle,-78.9434665,43.84963115,13355.23031,67,10,1,112MSXFuhYzL8sHrkNYj3UxJvHLXgR6pz36PW64TZSm82mRuxoo9,84
uneven-red-coyote,-78.97239599,43.89437266,13380.90009,80,15,1,112moWLEeYG2xL1UiKW32ocMigeuwe3yzAXnrBzda3WKJQYJ5uyo,101
shiny-coal-starling,-78.97646313,43.91389296,13392.1974,40,5,1,11mXyzF1dcxVHjFWYzzRn3RRHwgGFbQvJq9CsRHBZ8MLCdVSrnW,117
striped-macaroon-piranha,-78.97633206,43.91052669,13410.2269,58,6,1,11LWbbzC3NKcvN3xn8pVZjX1YjQxvetAgZZ7bPuHNXG7J5PNVjs,108
broad-iris-unicorn,-78.96385527,43.87381416,13437.09398,28,66,0.166671753,112LyUwn5p9kZ7TeCUG33uKu6T32XHx7pYKBFqvCLfrDgsWRKU2w,83
creamy-wool-crab,-78.96395288,43.8735263,13456.91607,40,35,0.166671753,11mYEwmD1sg7bzPzt4wYCg4aed29HrhhQorECE95RH4FdhHCFxd,83
bent-obsidian-chipmunk,-78.97360041,43.89457107,13470.32488,40,7,1,112CfNtdgeobPVsNcWcFDnbbwdXEk19kaPEFf6nappL367rwskj7,101
acrobatic-yellow-lynx,-78.96412208,43.87340222,13474.85866,58,35,0.333328247,112gF3sS3t54RPvZBzqhK3wgdnMS16ijScrLLua6QKptJ4y57RgZ,83
shallow-lipstick-crow,-78.96957012,43.95898772,13476.07914,80,9,0.833328247,112pkHi1Qmfa3jEismENZ8Xr5gr1ht5GtoSgftufG4mYy7fhnGLF,174
bent-olive-worm,-78.96464915,43.87409702,13483.50128,58,100,0.333328247,112vtvfHcUxhVvyt5GUDDNRSYYiS9JkUG643h3SKQgERMjhp767v,83
hollow-plastic-cod,-78.97280914,43.95206793,13509.38888,80,7,1,11SGrvHC9GwjjTiCDCqVdRr57hrVJpqgDB6RrKv7zomVqCEQwV4,166
witty-aquamarine-moose,-78.97403649,43.89403489,13517.77439,40,6,0.990097046,11enaCfVW2F6PAWWHKQV4TuKzch87KFgCFWZHBUJ1fu1V85qqr6,101
cheesy-viridian-octopus,-78.95344782,43.85766068,13519.56227,40,22,1,1122WJMdb5MSz56vjZhF5TRGdJ3i2mjHCTLX2rbJPc7jmihX3Dgd,81
bubbly-canvas-capybara,-78.97261,43.88923987,13536.91773,40,8,,112TpeT4wEBsfnYfhQ6HHJPLBgos2FweZCNcDTTTzFjZyqJ4NdUj,100
decent-caramel-mustang,-78.96761458,43.96475033,13541.27528,40,4,0.625,112RshTve8HQjRrUwaQbXY7LKtsrUiLozJR7U2suweYqg2ZEv3C2,174
uneven-ultraviolet-yak,-78.64498616,43.89408423,13598.66879,58,10,1,11xTgEPsky8zrjwpxaG1K3zNZ2XpAdE97oGQg78Pi96ChaFpJ4E,100
docile-champagne-canary,-78.97931703,43.91785967,13601.0697,40,0,1,11oj4FDWEELhJMg9DeNcFo1RuYXN8ofNnHztAec7ei24fhC5zEv,117
long-lipstick-nightingale,-78.96930974,43.96350823,13620.48175,12,0,0.833328247,112eE6gD12HgataoZvFBk97QfrfsjQeio9MBAZ6jD628Bgv3Pggo,174
sparkly-felt-millipede,-78.95110738,43.85332364,13621.10303,40,6,0.5,112qaQwUsw3p5hBVPaYckT3oH9VfYkzYr4FvwNycFcrXeGjQMyLa,82
macho-punch-badger,-78.96701129,43.8738785,13667.9071,40,5,0.333328247,112fNAZCZ8Jyt2HXqy9PkKaEy9nHp18XR2kaVrRufdQVhVhM7EQ1,86
chilly-myrtle-badger,-78.97986113,43.90837131,13715.80624,40,5,1,112jojVCsK9FrAqa4Qfo9EDLRo4haHk5rRaebsLMnTSksHrFP2JP,108
flaky-ash-beaver,-78.9531756,43.85396883,13720.46621,23,0,0.5,1123ejijKe6LNuVJVJYLEhq5MPvPhBkQ29hB8LhAa2qxDi76DhQq,82
late-blue-skunk,-78.9531756,43.85396883,13720.46621,80,6,0.5,11GqSQfJCnpE5q9Jf68G61WUHiWZgeMXWbxJh8rYenFLiQaoWfT,82
teeny-aqua-monkey,-78.96902867,43.87542683,13752.79349,58,6,1,113b4D8DmVoWeCrDhtdgo5YiwiGLVGUztiJNsgtxXKWJXYsNir7,96
zealous-cyan-kookaburra,-78.97655683,43.95040339,13756.2195,40,6,1,112pmjfKiub3U9PhCncAx87H4wycXPwuF5Nh7HfxLJrYnjA4Uw1e,162
dizzy-white-donkey,-78.98094248,43.90930946,13791.63063,58,9,1,11aBWPcomSNbrP5d955ptiisCSFphaYLdNXp1NLTUg9BuCiUpgw,108
glamorous-blue-jay,-78.97337775,43.96052716,13819.81082,80,9,0.833328247,1125M6BJm8ii7hLKrwBkCH1hbmCuTXRC172mfakmSE2jNDLGredR,174
sweet-peanut-hamster,-78.97408001,43.88340237,13834.86436,40,16,0.990097046,11cYFQ1hXG5hYbnYSxt21Bbz4878LfgwPtVEAXpuVyrS22dCMV7,96
real-rainbow-worm,-78.98067371,43.90409653,13838.73134,58,6,1,1186GPy1X6vScRPP2s3eEc5LSpN1h9H6ZtCvwes9uKa2TKjfgCg,108
deep-misty-dog,-78.64165869,43.89413467,13858.18039,58,16,1,11MPoTVH7b7tjJ2824MFZCP5zK1c2KGkQSJmXsJL1kM5g7QEVJW,93
raspy-aqua-goose,-78.97885422,43.89482839,13876.1861,80,10,0.495056152,11299Fj9p5gCqSTpv54gusY35DGLkVg2AkHiMaaXXz9vK19FY1tn,105
flat-honeysuckle-shell,-78.97916678,43.89503186,13895.93807,80,6,0.495056152,112mJAddwrJhBLFSY6StUh3fRkEzAYuAqfmHmh43QbPD9BDwviq2,105
tangy-fleece-barbel,-78.97731593,43.88773516,13945.92738,23,0,1,112ie2ZY1PXyB7NrZJjqTrkoyG6LBdw2bNbtejpy2ZuS8m8sdXkH,101
cuddly-punch-blackbird,-78.97531626,43.88163022,13990.45449,58,7,0.990097046,11TrKxysinqFebd5udXATNuNW7W6damjvgEKUtqpnJcw7KezNwZ,96
brave-hotpink-wolf,-78.97620176,43.88314396,14006.0235,28,5,0.495056152,112vAR7cFNac2F4hhLuafoqgkcdhs1R7kM2kp3WrPmtgbi4fzFJN,90
loud-tiger-locust,-78.97383813,43.87773915,14021.46536,12,0,0.5,112sQc9KwCfydTUQ3hYFbCwskXGSAHW1MwBeEJgwdMtkhHHQbX8P,96
restless-pink-squid,-78.97694404,43.88433013,14023.58889,40,5,0.490188599,11GUZxGstv3NZ4PfTzvqbrd3yiWjigj1DDp4Xq9FC2TDz4pkhKB,90
blurry-hickory-rattlesnake,-78.97558917,43.87969942,14080.4087,58,5,0.5,11TKR9DtDcYgdjpEc8W26U9bDvCxVyrdYWChMzVTy4yLbTzC8CU,96
itchy-oily-osprey,-78.98275433,43.89607859,14154.23981,80,6,0.990097046,11GcjvHNqMdEP8FyAN467W3wbhCAmH6VCEabY3wenHurmJssyte,105
macho-glass-antelope,-78.98393298,43.89672865,14232.96113,40,18,1,112HeQdaNgqWYmKTgqAzm122F1egZ2zys78ytSS9Pk7JoTmVbNhm,105
faint-tawny-bear,-78.98148213,43.88857328,14244.57754,120,0,0.990097046,11zkDN68wNC7DAYQ7FHeH5og5CFDWo61XnsrFe742fuJ1SAZdkV,101
skinny-blush-gibbon,-78.97988585,43.88390276,14263.5372,23,4,0.800003052,11Nbssbp7Pr6MknRT4mrdkQJEVQzGrrraSH5WBoPdez4eWX6ob4,90
raspy-ebony-shell,-78.9818464,43.88787332,14292.95649,23,0,0.990097046,11ATDFXkyd9FkrXnDn7cMVopzZpr7NoG4VpsddcEXossJJSXmV7,101
puny-mango-snail,-78.95103541,44.000058,14306.1608,80,15,1,11uaFnfEzXA3SnPs11LpQuJsEwU3BtzYpQBZAkCQM1LPVzzgHv5,224
custom-cloud-grasshopper,-78.98775571,43.91210316,14310.60285,23,0,1,11euDewranutbWsVkiZE4aJasMvBSA7jEUZP1QdALDtUyV8pzPr,117
straight-stone-penguin,-78.98775571,43.91210316,14310.60285,58,0,1,11uGJBiX1YexEqcVLnMt52XN7B2apyKyJzz79baZW6co6c3Sg79,117
crazy-maroon-guppy,-78.96445837,43.98568194,14312.13813,58,5,1,112nYRSDeA633yeXaPpCs1U2bGDxpAEnMRD9NUnRUwDUPX3FuHpr,215
noisy-blush-rooster,-78.98232811,43.88795264,14328.04017,28,6,1,11meb95Bo2SEVpAJrUetxkre9BXKh1e5KYW378eRMyEMmqf5jYW,101
tangy-carbon-tarantula,-78.63545562,43.89476771,14330.23263,12,0,1,11buBp3MPoex7UgiRSnNo3ZGqZ8i8zCpXJaxRYGTdPRKVuxniE8,93
sweet-teal-chimpanzee,-78.98779604,43.90146867,14447.48864,23,4,1,112k5D7WWAt73AXoKDK8orqM8eojnyD6ocmLTkRaXy29niAWXPgV,104
witty-macaroon-jellyfish,-78.98110198,43.88106341,14451.77365,51,9,0.990097046,11AsyyXnrnu2JskkvFNPpmKbwS1dsEv7VwZeQ19uZzS74xAPsPU,90
immense-peanut-chicken,-78.98167764,43.96158872,14489.57167,80,10,1,11oEve1RJYTdAmvJ8NDRogWwPTbRAXPnAuQ9ksnedCFt1Yr3xzU,170
polite-eggshell-dinosaur,-78.98109405,43.87695874,14599.10411,12,0,0.980392456,119Uw5ztbfYaCH6RiPAWx27aMqm7gh5QuXmTmp1nu2PFjPfzb1t,90
small-graphite-woodpecker,-78.99049224,43.90252042,14644.34667,58,5,1,11GYHbrrUfCNkWv4SaghQaumwi13x76mH22NYMDshDDsGorAwX6,110
furry-hemp-mallard,-78.97151839,43.8560822,14861.65196,40,4,1,11puLTjB9Ec64BV6JSVjLJzmYs6BkpijafZw5Rfa4rZTFfMCXBU,82
sweet-chocolate-oyster,-78.98264606,43.86824839,15069.00786,40,13,0.5,11NWWqmh9CMqMvETrdJdSDNXSLJHvEi1hggCnsUn7ETc51VPSe6,88
attractive-daisy-gorilla,-78.98346581,43.86807948,15136.98653,12,0,0.5,11wpdZgPxvyx6CysTMVDdHoDd3FceyspdNnnr9tAEUF5mhKobeG,88
bubbly-cobalt-opossum,-78.9949617,43.88668853,15345.4394,40,17,0.990097046,11FfoFmE8n8CRH4xguD27o27KA5mP8euMWf5t3MZzQWkAKsVxkR,104
rapid-tartan-reindeer,-78.61904792,43.91012642,15390.11572,58,13,1,112CxZuKL3uCuTY1cP5rAJLK9fxB8R2BsmwdGHgDzt5aae1NLo87,98
atomic-currant-wren,-78.98935854,43.86418736,15743.62299,80,4,0.990097046,11278mYiRrJirW4CnSV8TAvrcwzWFmdUV4koNTgDKWFZs5hGTRuB,91
festive-stone-tarantula,-79.00694885,43.8982353,16023.60505,40,17,0.990097046,11mJtVwu93i4BcotxVRoKmx34dnjogTpWFhbe23GWLqRCyTueET,112
fun-parchment-koala,-79.0026648,43.88233277,16069.38204,80,5,0.754364014,1126PRemRWXcW5fP3tTtrmke4Tp1fRDcBv1qRYpHuUjTK4XBj13r,101
orbiting-seafoam-cyborg,-78.9998732,43.87442732,16116.44748,40,4,0.980392456,11cZ5MBRHW1SVvonWYxqTRnsBKmsF5Go7dB4rVRSZpgXGXkPgJL,97
sharp-inky-horse,-79.00240883,43.87970723,16131.02293,40,4,0.495056152,11xARJmVJGdHgooGE9bJwaXLLQy9EQBhEaBCsgec8haY5S3pqFR,111
magic-cotton-sawfish,-79.00537032,43.88748888,16135.28296,30,1,0.990097046,112wb4jNdyny3KuyEBc851KYu6ykCu6URJfKbNabK3hP2cPLs4Rh,111
shiny-chartreuse-anteater,-79.00427377,43.88396514,16146.16726,80,4,0.754364014,11HyafhsQy8CCT8D3BezVVQjfcCgEhkDFzA32xHQyNVphZaA6Kp,101
quaint-cotton-pony,-79.00286483,43.88023813,16149.30163,58,6,0.495056152,11DE2raBxJScYutpfeE9FoL7bq4yU1U4vzsCFHXwk5jrc8NWHqV,101
narrow-maroon-panther,-79.00231672,43.87847636,16163.80202,12,0,0.490188599,119KAE14vh5cFJnp5xHKURyxT1x6tewFZMAwxnVuUvHW6fLkvfy,111
striped-satin-dachshund,-79.00066731,43.87470993,16166.72721,40,3,0.990097046,11fiiT26YcwTpRvAtGNnRuzAvjkUmRuoZa7VRgYP2SjX1Z6YuKt,97
tame-olive-hyena,-79.00868659,43.89760905,16172.67075,40,6,0.990097046,118XWQdQZVzSdNFHxoVXuvQeWuhDaRHYvaFH25GHEnQJ2SwLGjH,112
ripe-white-meerkat,-79.00279836,43.87855559,16198.19596,12,0,0.495056152,11Gi8w4Rg3r5bitQdnWDi7iqrcto3yKKD7z6VCFFygg9pvicUK6,101
old-khaki-badger,-79.00129233,43.87511667,16199.89148,40,0,0.495056152,11Ex9pdDgaiwawkZAD1BnT3t4J1t1HLiN4f4irE5M4DC6fXF3eV,97
blunt-clear-dachshund,-79.00122062,43.87495292,16200.21956,90,85,0.200668335,11vfiKH4VvRgM2CkzUJkeVMSqoGATaGcw2EDkBAHRbkD9NwwP1Z,97
hot-black-cobra,-79.00358733,43.88035697,16201.2657,23,0,0.800003052,11hMvdgMC9Nh9HXv4oxGb3HYtKMJBvzxq2L2rURkg3MBE9G2LHK,101
zany-cloth-dolphin,-79.00578547,43.88588544,16210.2334,80,10,0.754364014,112vqbpECWc6mMmhH4e68zywgB5T3GX6BMeVd7scFosVoYTjGUpN,111
atomic-garnet-nightingale,-79.00502197,43.88363228,16213.81282,12,0,0.754364014,11ANMXJj8TS7nKzfHvV4jjZ7RdsensYQfcStyMkVtE54XLghCF7,101
restless-shadow-panda,-79.01107098,43.90560075,16241.48768,40,10,0.980392456,112gC126LcVHfUcSiWULN1KUxPMnTkhr8pNNpfTFLAWMdhzwb6op,116
radiant-mustard-dachshund,-78.9878885,43.85163828,16252.72412,30,10,1,112nnxmizyXmKb2FTCEN5YHh9Xn9rhQ7yhDx6i5f1PJb8bLRZwQh,91
generous-citron-terrier,-79.01087058,43.90055191,16295.96686,12,0,0.990097046,11ALGJ2EkdnHQiwNMY5q9DVZdbQgSMQ2Ruzm6w7nbKp3zoso1vR,112
massive-plastic-bison,-79.01048048,43.89456025,16373.31207,58,10,0.952377319,11ZGLRveiVo8PphiEXoWU1TeKXtNdgEsHgcb9qBr8T57te4h2zS,112
steep-chiffon-goat,-79.00392076,43.87448536,16422.49106,58,4,0.990097046,11268r8LWWRQbWuo82QQu8MgM5ubLfTk5q4jGTsme3jab7PGD4rT,93
stale-burgundy-dalmatian,-79.01217762,43.89894285,16426.19517,58,14,0.990097046,112egAUFGptkwpTPGn8dX55LJ1Fnv2Gtiguwco9gT9KttccbysdK,112
generous-pewter-ostrich,-78.60572182,43.92905064,16430.47414,40,2,1,114nyQtVL1pdmM88SAc77Xbr3sPZUZuusF8R1gEkiNQ8bNmh16x,103
prehistoric-smoke-falcon,-79.00841953,43.88373509,16474.76092,58,10,0.754364014,11UHSWzXU89KNkcCVPAuW5DqG3fiBP5KRob8UJVoRdhdhXxkXQB,101
brave-brick-walrus,-78.98826385,43.84790195,16481.0379,80,8,1,11pX8FiZ6ZjydemWvjCveAKQ12HvxgBFs3SDbi7E3BASBMKUFd6,85
